timestamp,dt,x,y,z,vx,vy,vz,roll,pitch,yaw,roll_rate,pitch_rate,yaw_rate,motor1,motor2,motor3,motor4
262660000,0.0,0.20421144366264343,-0.18590810894966125,-0.41281014680862427,-0.011417892761528492,-0.004799231421202421,0.2718888223171234,0.002823125571012497,-0.005795087665319443,1.5892645120620728,-0.0003179534978698939,-7.600267417728901e-05,5.085856537334621e-05,0.0,0.0,0.0,0.0
262716000,0.056,0.20540326833724976,-0.18556860089302063,-0.41422972083091736,-0.010737462900578976,-0.005988119635730982,0.27195021510124207,0.002799932612106204,-0.005826715379953384,1.5893036127090454,-0.00016712339129298925,-0.00028961285715922713,-1.279721618629992e-05,0.0,0.0,0.0,0.0
262764000,0.048,0.2065299153327942,-0.18517640233039856,-0.4154093563556671,-0.009837399236857891,-0.0066565959714353085,0.2719908356666565,0.0028029249515384436,-0.005873117595911026,1.5893280506134033,-0.0002638641162775457,-0.0001925743999890983,0.00016973857418633997,0.0,0.0,0.0,0.0
262812000,0.048,0.2076268047094345,-0.1848488301038742,-0.41446250677108765,-0.009044296108186245,-0.00746125727891922,0.27267757058143616,0.0028019605670124292,-0.005910256877541542,1.5893604755401611,-9.914101974572986e-05,6.477313581854105e-05,4.7822686610743403e-05,0.0,0.0,0.0,0.0
262860000,0.048,0.21084916591644287,-0.18562281131744385,-0.4160168766975403,-0.00908637698739767,-0.00866694562137127,0.2724108397960663,0.002812214894220233,-0.005931667517870665,1.589393138885498,-0.00014499295502901077,-7.346330676227808e-05,0.0001689659256953746,0.0,0.0,0.0,0.0
262916000,0.056,0.21531859040260315,-0.18707694113254547,-0.41738161444664,-0.00950202438980341,-0.010231242515146732,0.2721768319606781,0.0028135429602116346,-0.005939153954386711,1.589485764503479,-0.00026359842740930617,-0.00010806048521772027,-8.928502211347222e-06,0.0,0.0,0.0,0.0
262972000,0.056,0.2183673083782196,-0.1876397728919983,-0.4182043671607971,-0.009724617935717106,-0.01139131374657154,0.27216067910194397,0.002820035209879279,-0.00593991344794631,1.5895849466323853,-0.00018107422511093318,-0.0001815235591493547,-0.00027177008450962603,0.0,0.0,0.0,0.0
263020000,0.048,0.2198161482810974,-0.18730668723583221,-0.4191141426563263,-0.009775033220648766,-0.011987285688519478,0.2720642685890198,0.002829916076734662,-0.0059340838342905045,1.589652419090271,-0.00020525683066807687,-0.00020333845168352127,0.00018262532830704004,0.0,0.0,0.0,0.0
263076000,0.056,0.22141806781291962,-0.18711331486701965,-0.41757750511169434,-0.009919257834553719,-0.012709829024970531,0.2726232707500458,0.0028432842809706926,-0.005930603947490454,1.5897071361541748,-0.0004015953163616359,-0.00042051117634400725,0.00018983145128004253,0.0,0.0,0.0,0.0
263124000,0.048,0.2200758457183838,-0.19044890999794006,-0.41676849126815796,-0.011579579673707485,-0.011965006589889526,0.27301734685897827,0.0028787627816200256,-0.005902236793190241,1.5897468328475952,-0.00028460469911806285,-0.00030643591890111566,0.0001957316417247057,0.0,0.0,0.0,0.0
263172000,0.048,0.21895699203014374,-0.1934994012117386,-0.4141008257865906,-0.013057330623269081,-0.011411982588469982,0.2739449143409729,0.002915827091783285,-0.005869183223694563,1.5897754430770874,-0.00029223912861198187,-0.00015385483857244253,0.00017360030324198306,0.0,0.0,0.0,0.0
263220000,0.048,0.21671634912490845,-0.19571438431739807,-0.41141077876091003,-0.014091500081121922,-0.010515746660530567,0.2747775912284851,0.0029517346993088722,-0.0058431061916053295,1.5898016691207886,-5.6555825722170994e-05,-0.00018659926718100905,7.925876707304269e-05,0.0,0.0,0.0,0.0
263268000,0.048,0.21235916018486023,-0.19666224718093872,-0.410028874874115,-0.014319785870611668,-0.009049993939697742,0.2752906084060669,0.0030062622390687466,-0.005837789736688137,1.5898323059082031,-0.00012795999646186829,-3.639981150627136e-05,3.460394509602338e-05,0.0,0.0,0.0,0.0
263316000,0.048,0.20869113504886627,-0.19762387871742249,-0.40679940581321716,-0.014651468023657799,-0.007912985980510712,0.2762843668460846,0.0030484285671263933,-0.00583755224943161,1.5898548364639282,-0.0003446136834099889,-0.0002473416388966143,8.43674351926893e-05,0.0,0.0,0.0,0.0
263364000,0.048,0.2070329189300537,-0.19809433817863464,-0.4065462052822113,-0.014433519914746284,-0.007505826186388731,0.2764452397823334,0.0030807037837803364,-0.005855621304363012,1.589867353439331,-0.0003417431144043803,-0.0002907515154220164,-6.844621384516358e-05,0.0,0.0,0.0,0.0
263412000,0.048,0.20588219165802002,-0.19845490157604218,-0.40515488386154175,-0.014176035299897194,-0.007295515388250351,0.27684950828552246,0.0031005500350147486,-0.005880156997591257,1.5898460149765015,-0.00027400473481975496,-8.961366256698966e-05,7.316464325413108e-05,0.0,0.0,0.0,0.0
263460000,0.048,0.20509101450443268,-0.19821634888648987,-0.4030587375164032,-0.013659561052918434,-0.007266511674970388,0.2774215042591095,0.003114385297521949,-0.005906613543629646,1.5897879600524902,-2.440685966575984e-05,-3.325199941173196e-05,-4.789576632902026e-05,0.0,0.0,0.0,0.0
263508000,0.048,0.20518521964550018,-0.1953849047422409,-0.4042896032333374,-0.011993251740932465,-0.0076079582795500755,0.2775072455406189,0.0031239078380167484,-0.005961226765066385,1.589713454246521,-0.0002591292141005397,3.862706944346428e-05,-0.00019018087186850607,0.0,0.0,0.0,0.0
263556000,0.048,0.20536449551582336,-0.19293487071990967,-0.40326082706451416,-0.010598240420222282,-0.008006418123841286,0.27814385294914246,0.0031258566305041313,-0.006011452991515398,1.589629054069519,-0.0001280363358091563,8.514814544469118e-05,5.564020830206573e-05,0.0,0.0,0.0,0.0
263604000,0.048,0.20556461811065674,-0.1892726719379425,-0.4008879065513611,-0.008679653517901897,-0.008485913276672363,0.27900221943855286,0.0031215662602335215,-0.006072360556572676,1.5895625352859497,-9.294833580497652e-05,-8.210237137973309e-05,1.1740165064111352e-05,0.0,0.0,0.0,0.0
263652000,0.048,0.2058202475309372,-0.18526671826839447,-0.3970758318901062,-0.006648612674325705,-0.009110664017498493,0.2800695598125458,0.0031143545638769865,-0.006136964540928602,1.5894767045974731,0.00012332655023783445,-0.0002103265142068267,5.461784894578159e-06,152.0,150.0,152.0,150.0
263700000,0.048,0.20613591372966766,-0.18167495727539062,-0.3917723000049591,-0.004890155978500843,-0.009766501374542713,0.2814558148384094,0.003103914437815547,-0.006196183152496815,1.5893275737762451,-0.0001345199707429856,-0.0003283734549768269,-2.1815241780132055e-05,152.0,150.0,152.0,150.0
263756000,0.056,0.21039241552352905,-0.17906321585178375,-0.38865014910697937,-0.0037888209335505962,-0.011636312119662762,0.28241345286369324,0.0030788227450102568,-0.00624234601855278,1.5891860723495483,-0.0004116467898711562,-0.00016398524167016149,-4.903378430753946e-05,152.0,150.0,152.0,150.0
263804000,0.048,0.2137525975704193,-0.177181676030159,-0.3841690421104431,-0.0030291026923805475,-0.013152430765330791,0.2836545407772064,0.003052122425287962,-0.006271680351346731,1.589086651802063,-9.105779463425279e-05,-7.30627216398716e-05,8.454298949800432e-06,152.0,150.0,152.0,150.0
263852000,0.048,0.2168789505958557,-0.17488645017147064,-0.3786718249320984,-0.0022196362260729074,-0.01478359941393137,0.2850949764251709,0.0030268619302660227,-0.006286927033215761,1.5890108346939087,-4.9638030759524554e-05,-0.0002544540911912918,9.939917072188109e-05,152.0,150.0,152.0,150.0
263900000,0.048,0.21984687447547913,-0.1722736805677414,-0.3722723424434662,-0.0014256932772696018,-0.01635047048330307,0.2867169976234436,0.003005341161042452,-0.006301488261669874,1.588931679725647,2.83110530290287e-05,7.336749695241451e-05,0.00013492090511135757,152.0,150.0,152.0,150.0
263956000,0.056,0.22306489944458008,-0.16941529512405396,-0.3642663359642029,-0.0005122439470142126,-0.017940666526556015,0.288674533367157,0.0029771258123219013,-0.006313185207545757,1.5888875722885132,-0.00012613151920959353,-0.00028009398374706507,0.00010381106403656304,152.0,150.0,152.0,150.0
264004000,0.048,0.22564323246479034,-0.16579103469848633,-0.3608209490776062,0.0014322141651064157,-0.019101176410913467,0.2893264889717102,0.0029637585394084454,-0.006364586763083935,1.5889219045639038,-0.0001505224936408922,-0.0003996663726866245,7.340600132010877e-05,152.0,150.0,152.0,150.0
264052000,0.048,0.22808118164539337,-0.16258026659488678,-0.3557985723018646,0.0030675986781716347,-0.020109161734580994,0.2903207838535309,0.002950182417407632,-0.006412028335034847,1.5889734029769897,-5.381100345402956e-05,-0.000147190410643816,0.00022985265241004527,152.0,150.0,152.0,150.0
264100000,0.048,0.22925885021686554,-0.16155707836151123,-0.35181018710136414,0.0039013412315398455,-0.020709199830889702,0.2910369038581848,0.0029448496643453836,-0.006449053063988686,1.5890616178512573,-0.00024382362607866526,-6.445532198995352e-05,0.00016018070164136589,152.0,150.0,152.0,150.0
264156000,0.056,0.2295258641242981,-0.16240422427654266,-0.3477659225463867,0.00407081563025713,-0.02116735465824604,0.29167112708091736,0.002947542117908597,-0.0064802332781255245,1.589202642440796,6.115730502642691e-05,-0.0003978838212788105,0.0003193349111825228,152.0,150.0,152.0,150.0
264204000,0.048,0.22993893921375275,-0.1630087047815323,-0.34261801838874817,0.00411220034584403,-0.021497024223208427,0.2928404211997986,0.0029460988007485867,-0.0065050916746258736,1.5893490314483643,-0.0004790998646058142,-0.00023626955226063728,0.00011119333794340491,152.0,150.0,152.0,150.0
264252000,0.048,0.22865402698516846,-0.16360893845558167,-0.3379184603691101,0.0036662924103438854,-0.021350950002670288,0.29395791888237,0.0029542753472924232,-0.006509407423436642,1.5895085334777832,-0.00012547631922643632,-0.00028871570248156786,3.8775906432420015e-05,152.0,150.0,152.0,150.0
264300000,0.048,0.22777080535888672,-0.16413554549217224,-0.3318069875240326,0.003158177714794874,-0.021311897784471512,0.29550182819366455,0.0029668735805898905,-0.006512714549899101,1.589637041091919,-8.455096394754946e-05,-0.0004426063969731331,0.00023346913803834468,152.0,150.0,152.0,150.0
264356000,0.056,0.22732169926166534,-0.16522200405597687,-0.3251606822013855,0.002222456270828843,-0.02167365327477455,0.29691046476364136,0.0029703183099627495,-0.006497183348983526,1.5897237062454224,-5.304105798131786e-05,-0.00020254217088222504,0.00017065864813048393,152.0,150.0,152.0,150.0
264404000,0.048,0.22736094892024994,-0.16638627648353577,-0.3193461298942566,0.0012637366307899356,-0.022318512201309204,0.2980228066444397,0.002962374361231923,-0.006470952648669481,1.5897178649902344,-0.00015644832456018776,-0.00014657003339380026,5.206535570323467e-05,152.0,150.0,152.0,150.0
264452000,0.048,0.2275824397802353,-0.16748827695846558,-0.3122842609882355,0.00037071877159178257,-0.02292848937213421,0.29956457018852234,0.002951220376417041,-0.006450442597270012,1.589708924293518,4.194711073068902e-05,-0.00024001626297831535,0.00012786091247107834,152.0,150.0,152.0,150.0
264500000,0.048,0.22716449201107025,-0.1681733876466751,-0.30882981419563293,-0.001040661009028554,-0.02302200347185135,0.30012446641921997,0.0029468939173966646,-0.006414738018065691,1.5896817445755005,-0.000319616257911548,-5.063408752903342e-05,0.0002287198294652626,152.0,150.0,152.0,150.0
264556000,0.056,0.22704613208770752,-0.16908864676952362,-0.3027292490005493,-0.002622228115797043,-0.023175939917564392,0.30131804943084717,0.0029467365238815546,-0.006375913042575121,1.589677333831787,-4.932547381031327e-05,-0.0005603273748420179,0.00019404033082537353,152.0,150.0,152.0,150.0
264604000,0.048,0.22598063945770264,-0.16870613396167755,-0.2990768253803253,-0.003237528493627906,-0.023038342595100403,0.30206555128097534,0.0029526748694479465,-0.006355046294629574,1.589663028717041,-0.00011110835475847125,-9.509967640042305e-07,4.7122230171225965e-05,152.0,150.0,152.0,150.0
264652000,0.048,0.2246215045452118,-0.1679588258266449,-0.2952255606651306,-0.003585629165172577,-0.02282898500561714,0.3029392957687378,0.002958495169878006,-0.0063539971597492695,1.5896925926208496,1.8653136066859588e-05,-5.707715172320604e-05,4.319038998801261e-05,152.0,150.0,152.0,150.0
264700000,0.048,0.2235865592956543,-0.16738276183605194,-0.28980112075805664,-0.003790110582485795,-0.02263917215168476,0.30426812171936035,0.002963955979794264,-0.006351449526846409,1.5897269248962402,-0.0004363950283732265,0.0001882190117612481,0.00025811034720391035,180.0,237.0,226.0,227.0
264756000,0.056,0.22656141221523285,-0.1666869819164276,-0.2841070294380188,-0.003763249609619379,-0.02430085279047489,0.3055976331233978,0.0029373816214501858,-0.006373286247253418,1.5897419452667236,-0.00018710509175434709,-0.00040099635953083634,-3.734460915438831e-05,190.0,247.0,236.0,235.0
264804000,0.048,0.2289932817220688,-0.1662348061800003,-0.2776784300804138,-0.0037006286438554525,-0.025603117421269417,0.307118684053421,0.002912669675424695,-0.006391961593180895,1.5897656679153442,-0.00034586701076477766,-0.000258828978985548,0.00023964093998074532,198.0,255.0,245.0,244.0
264852000,0.048,0.23156985640525818,-0.1656833440065384,-0.27192601561546326,-0.003648755606263876,-0.02661149762570858,0.308624804019928,0.0028884559869766235,-0.0064150067046284676,1.5898067951202393,6.944191409274936e-05,-1.161615364253521e-05,-3.132162964902818e-05,208.0,264.0,254.0,252.0
264900000,0.048,0.23431111872196198,-0.16506069898605347,-0.26656922698020935,-0.0036084840539842844,-0.02753199078142643,0.31023257970809937,0.002867428120225668,-0.006438171956688166,1.5898767709732056,-0.00014991250645834953,9.110663086175919e-07,0.0001349942322121933,217.0,273.0,264.0,262.0
264948000,0.048,0.2370774745941162,-0.1646156758069992,-0.25972914695739746,-0.003614500630646944,-0.02861747331917286,0.31203097105026245,0.002850520657375455,-0.00646250182762742,1.5899568796157837,-0.00027788535226136446,-0.0002567517221905291,0.0002536934625823051,229.0,285.0,276.0,273.0
264996000,0.048,0.2382909059524536,-0.16389164328575134,-0.2603873908519745,-0.003208405338227749,-0.028752174228429794,0.31197017431259155,0.002851728117093444,-0.0064886705949902534,1.5900154113769531,9.132803825195879e-06,-0.0002515918458811939,0.00013603632396552712,237.0,293.0,285.0,281.0
265044000,0.048,0.23959970474243164,-0.16326352953910828,-0.25873130559921265,-0.0028213714249432087,-0.028997302055358887,0.3124329447746277,0.0028559311758726835,-0.006512566469609737,1.590050458908081,-0.0002786895784083754,-0.00012873002560809255,0.0002156792616005987,248.0,304.0,296.0,292.0
265092000,0.048,0.24114561080932617,-0.16266173124313354,-0.2589327394962311,-0.0023237771820276976,-0.029109694063663483,0.3124854564666748,0.002870382973924279,-0.006539330817759037,1.5900299549102783,5.211643656366505e-05,-0.0003815916134044528,0.00016056394088082016,259.0,315.0,307.0,302.0
265140000,0.048,0.24279358983039856,-0.16201160848140717,-0.26391592621803284,-0.0015247619012370706,-0.028896238654851913,0.3115423619747162,0.0028968036640435457,-0.006573349703103304,1.5899959802627563,-0.00010219914111075923,-0.0006151320412755013,0.00016869328101165593,269.0,327.0,319.0,313.0
265196000,0.056,0.2445671260356903,-0.16131089627742767,-0.2660359740257263,-0.0007939437055028975,-0.02867371030151844,0.3113277554512024,0.0029281708411872387,-0.006609583273530006,1.5899360179901123,-0.00011546914902282879,-0.00012636568862944841,0.0002792952873278409,280.0,342.0,333.0,327.0
265244000,0.048,0.2478039562702179,-0.1588721126317978,-0.2717096507549286,0.0010368016082793474,-0.02906346134841442,0.3103271424770355,0.0029414724558591843,-0.00666123116388917,1.589918613433838,-0.00019468281243462116,-0.00040529610123485327,0.0001898899208754301,291.0,355.0,346.0,338.0
265292000,0.048,0.25119370222091675,-0.15624792873859406,-0.2755335867404938,0.0029503146652132273,-0.029638778418302536,0.30980998277664185,0.0029453847091645002,-0.00672848429530859,1.5898596048355103,0.00010186241706833243,-0.00016947707626968622,0.00015466235345229506,302.0,369.0,360.0,350.0
265340000,0.048,0.25516846776008606,-0.15417802333831787,-0.27749478816986084,0.004516577813774347,-0.030349019914865494,0.30963587760925293,0.0029454652685672045,-0.006786785554140806,1.5897949934005737,-7.443195499945432e-05,-0.00013870385009795427,0.00012265094846952707,313.0,384.0,375.0,362.0
265388000,0.048,0.2603446841239929,-0.1528671532869339,-0.2787397801876068,0.0057199206203222275,-0.03153930604457855,0.30948561429977417,0.002930339891463518,-0.0068445890210568905,1.5897376537322998,-0.0003056068962905556,-0.000164547236636281,6.875459803268313e-06,327.0,402.0,392.0,377.0
265436000,0.048,0.26502689719200134,-0.1516035944223404,-0.2775759994983673,0.006751189008355141,-0.03257036209106445,0.30991947650909424,0.002914462238550186,-0.00688793184235692,1.5896912813186646,-0.0004083289240952581,-0.00012777908705174923,0.00020535397925414145,337.0,415.0,405.0,388.0
265484000,0.048,0.2703741490840912,-0.149915874004364,-0.28075307607650757,0.007949684746563435,-0.033702507615089417,0.30963385105133057,0.002890266478061676,-0.006933830678462982,1.5896650552749634,-9.630569547880441e-05,-0.00017437373753637075,0.00010663544526323676,350.0,431.0,421.0,402.0
265532000,0.048,0.2757145166397095,-0.14811459183692932,-0.2841114103794098,0.009022878482937813,-0.034709181636571884,0.30937623977661133,0.002865916583687067,-0.006972151342779398,1.589665412902832,-0.00013652534107677639,-0.0002469135797582567,0.00021170737454667687,362.0,447.0,437.0,416.0
265580000,0.048,0.2810361385345459,-0.14652447402477264,-0.28496623039245605,0.009889911860227585,-0.035594213753938675,0.3095868229866028,0.002841487992554903,-0.007006338331848383,1.5896759033203125,-0.0001924087991937995,-0.00022216606885194778,4.9782101996243e-06,376.0,464.0,454.0,430.0
265636000,0.056,0.2894083857536316,-0.1451939046382904,-0.28439074754714966,0.010527278296649456,-0.037278998643159866,0.310200035572052,0.002805239288136363,-0.007029341533780098,1.589640736579895,-0.00015419331612065434,-0.0001317609567195177,2.4318360374309123e-05,391.0,485.0,474.0,447.0
265684000,0.048,0.2957879602909088,-0.14413286745548248,-0.2815037965774536,0.010972369462251663,-0.038433823734521866,0.3112417757511139,0.0027767145074903965,-0.007043673191219568,1.5896098613739014,-0.0001551083114463836,-0.000494477862957865,0.0002001148386625573,405.0,504.0,492.0,463.0
265732000,0.048,0.30039459466934204,-0.14386805891990662,-0.28215575218200684,0.010997902601957321,-0.039083994925022125,0.311259925365448,0.002757222391664982,-0.007053759880363941,1.5895922183990479,-0.0001515747862868011,-0.0001561345998197794,0.00022178090875968337,420.0,523.0,510.0,479.0
265780000,0.048,0.30414047837257385,-0.14392614364624023,-0.2829345762729645,0.01082057785242796,-0.03955681622028351,0.3112872540950775,0.0027435061056166887,-0.007058792747557163,1.5895733833312988,-1.8986967916134745e-05,-0.0003084567142650485,0.0002497888053767383,434.0,542.0,528.0,495.0
265836000,0.056,0.30780041217803955,-0.14374247193336487,-0.2818637490272522,0.010714884847402573,-0.03992554545402527,0.311888188123703,0.002727935090661049,-0.007060722913593054,1.5895689725875854,-0.00028588357963599265,-0.00027148978551849723,4.792207619175315e-06,452.0,565.0,550.0,515.0
265884000,0.048,0.30874261260032654,-0.1426100879907608,-0.283549427986145,0.011223137378692627,-0.039482854306697845,0.31182536482810974,0.002735801273956895,-0.007078736554831266,1.5895849466323853,-0.00012788780441042036,-0.0001404518261551857,0.0002720326301641762,468.0,585.0,570.0,533.0
265932000,0.048,0.3095843493938446,-0.14154982566833496,-0.2826478183269501,0.011618208140134811,-0.03896079212427139,0.3123117685317993,0.002750896383076906,-0.007094806060194969,1.5896352529525757,-3.772012496483512e-05,-0.00010555621702224016,0.00015872872609179467,485.0,605.0,589.0,551.0
265980000,0.048,0.30673980712890625,-0.14120535552501678,-0.2817497253417969,0.011814572848379612,-0.037124671041965485,0.312652587890625,0.0027811205945909023,-0.0071137212216854095,1.5896803140640259,-0.0002941360871773213,0.00012125878129154444,0.00019664505089167506,502.0,626.0,609.0,570.0
266036000,0.056,0.3020502030849457,-0.14109748601913452,-0.2791464328765869,0.011903694830834866,-0.03447756916284561,0.31345924735069275,0.0028370090294629335,-0.007135826628655195,1.5897201299667358,-0.000248683470999822,-0.00024815660435706377,0.00023450920707546175,523.0,650.0,633.0,592.0
266084000,0.048,0.2984728217124939,-0.14091019332408905,-0.2764691114425659,0.011868568137288094,-0.03255314752459526,0.31423723697662354,0.0028820019215345383,-0.007152935955673456,1.5897413492202759,-0.00023023954418022186,-0.0003092475817538798,2.6068577426485717e-05,541.0,672.0,653.0,612.0
266132000,0.048,0.2942550778388977,-0.1405371129512787,-0.2796436846256256,0.012107432819902897,-0.030672267079353333,0.3137633204460144,0.0029296507127583027,-0.007180066779255867,1.5897481441497803,-0.0002724883088376373,-0.0003935456625185907,9.953108383342624e-05,559.0,694.0,674.0,632.0
266180000,0.048,0.29072585701942444,-0.14009062945842743,-0.2800227105617523,0.012366829439997673,-0.02905290760099888,0.31386661529541016,0.0029721101745963097,-0.007203595247119665,1.5897295475006104,2.069560287054628e-05,-0.0002343825763091445,0.00010327323980163783,578.0,716.0,696.0,653.0
266228000,0.048,0.2874410152435303,-0.14028766751289368,-0.2813115119934082,0.011977181769907475,-0.027482284232974052,0.3138260841369629,0.0030095854308456182,-0.007219369523227215,1.5896767377853394,-0.00018415783415548503,-0.00037483556661754847,0.0002025789872277528,601.0,743.0,721.0,678.0
266276000,0.048,0.2844817638397217,-0.14103998243808746,-0.28311777114868164,0.011096945032477379,-0.026122145354747772,0.31378743052482605,0.003046141704544425,-0.007211800664663315,1.5895822048187256,-7.129876030376181e-05,-4.156364593654871e-05,7.222528802230954e-05,617.0,763.0,739.0,696.0
266324000,0.048,0.2820340692996979,-0.1416938602924347,-0.28227484226226807,0.010296330787241459,-0.024577859789133072,0.3141118288040161,0.0030788828153163195,-0.007201233878731728,1.5894865989685059,0.001708255265839398,-0.00042218907037749887,-2.7528309146873653e-05,637.0,787.0,762.0,718.0
266372000,0.048,0.27838876843452454,-0.1433703601360321,-0.2820225656032562,0.009266248904168606,-0.014602867886424065,0.3092994689941406,0.003947679419070482,-0.007190595846623182,1.589396595954895,0.0376620814204216,-0.0004399859462864697,0.000430406944360584,661.0,806.0,779.0,745.0
266420000,0.048,0.27475327253341675,-0.14474830031394958,-0.27987921237945557,0.013530048541724682,0.003057199064642191,0.2978553771972656,0.007960652001202106,-0.007470223121345043,1.5898425579071045,0.11705983430147171,-0.008744564838707447,0.023459523916244507,686.0,813.0,797.0,777.0
266468000,0.048,0.26975154876708984,-0.1467178910970688,-0.27813708782196045,0.024019261822104454,0.027822550386190414,0.2794792950153351,0.0160942692309618,-0.008920031599700451,1.591241717338562,0.21566250920295715,-0.053276147693395615,0.03500873222947121,729.0,810.0,819.0,806.0
266516000,0.048,0.2621118724346161,-0.14991717040538788,-0.27846184372901917,0.0355638787150383,0.056140411645174026,0.25137633085250854,0.02959398739039898,-0.013152000494301319,1.5926400423049927,0.35252100229263306,-0.12593363225460052,0.025075947865843773,769.0,802.0,829.0,826.0
266564000,0.048,0.2542478144168854,-0.15217873454093933,-0.2785346508026123,0.04046424850821495,0.07930314540863037,0.20098023116588593,0.050720345228910446,-0.02216516062617302,1.5928524732589722,0.47221192717552185,-0.21037684381008148,0.005467015318572521,809.0,792.0,836.0,839.0
266612000,0.048,0.24929070472717285,-0.15285982191562653,-0.2844606935977936,0.049165066331624985,0.10872912406921387,0.13077998161315918,0.07114745676517487,-0.031020883470773697,1.5920137166976929,0.3668798804283142,-0.16393375396728516,-0.011428538709878922,829.0,803.0,843.0,852.0
266660000,0.048,0.24340537190437317,-0.15254904329776764,-0.29257118701934814,0.06066039204597473,0.14387564361095428,0.04678238555788994,0.08429242670536041,-0.03683045133948326,1.5905061960220337,0.1871129274368286,-0.08767776936292648,-0.02585776150226593,839.0,814.0,847.0,858.0
266708000,0.048,0.23511071503162384,-0.15126429498195648,-0.303134024143219,0.07357248663902283,0.18222805857658386,-0.04638506844639778,0.08842845261096954,-0.03901882842183113,1.5886303186416626,0.0016299944836646318,-0.017224090173840523,-0.03729488328099251,847.0,826.0,852.0,861.0
266756000,0.048,0.22300459444522858,-0.14895384013652802,-0.31825071573257446,0.08671406656503677,0.22169525921344757,-0.14604441821575165,0.08446183055639267,-0.03813792020082474,1.5864899158477783,-0.15012997388839722,0.037631187587976456,-0.04639081656932831,849.0,835.0,855.0,862.0
266804000,0.048,0.20904375612735748,-0.1456676572561264,-0.33638715744018555,0.09924881160259247,0.2591337263584137,-0.24906374514102936,0.07448741048574448,-0.03519152104854584,1.5841243267059326,-0.25110581517219543,0.07053840905427933,-0.05298348143696785,850.0,845.0,858.0,860.0
266852000,0.048,0.19205443561077118,-0.14067941904067993,-0.36103981733322144,0.1111663207411766,0.2934698462486267,-0.35502108931541443,0.061134204268455505,-0.031224193051457405,1.5814026594161987,-0.29656198620796204,0.08399326354265213,-0.057315267622470856,852.0,852.0,860.0,858.0
266900000,0.048,0.17260383069515228,-0.13418398797512054,-0.39198246598243713,0.12217531353235245,0.32337504625320435,-0.4629943072795868,0.046717915683984756,-0.02688886784017086,1.578395128250122,-0.3031240403652191,0.09123984724283218,-0.05910034850239754,853.0,857.0,860.0,857.0
266948000,0.048,0.1525261253118515,-0.12706948816776276,-0.4264032542705536,0.13144707679748535,0.3473448157310486,-0.5711774826049805,0.03278031200170517,-0.02249440923333168,1.5752534866333008,-0.27951332926750183,0.08927827328443527,-0.05914609506726265,855.0,860.0,860.0,855.0
266996000,0.048,0.12887120246887207,-0.11834672093391418,-0.47059476375579834,0.1394510269165039,0.36699509620666504,-0.6814242005348206,0.020454026758670807,-0.018301866948604584,1.5720938444137573,-0.2408601939678192,0.085045725107193,-0.05771559104323387,856.0,862.0,858.0,854.0
267044000,0.048,0.10549146682024002,-0.10942508280277252,-0.5180689692497253,0.14562220871448517,0.38085517287254333,-0.7914596796035767,0.01001155935227871,-0.014395473524928093,1.568911075592041,-0.20239458978176117,0.07915394008159637,-0.054812464863061905,857.0,863.0,856.0,853.0
267092000,0.048,0.08313550055027008,-0.10079164803028107,-0.572105884552002,0.14973072707653046,0.3895690441131592,-0.9019032716751099,0.0013045319356024265,-0.010846436023712158,1.5660068988800049,-0.16818740963935852,0.07109545171260834,-0.0508960597217083,858.0,864.0,855.0,852.0
267140000,0.048,0.06227999925613403,-0.09292660653591156,-0.6350011229515076,0.15171976387500763,0.39380335807800293,-1.0133732557296753,-0.005811816081404686,-0.007759080734103918,1.5638995170593262,-0.13600891828536987,0.057895176112651825,-0.0459771566092968,859.0,863.0,854.0,851.0
267196000,0.056,0.03869064152240753,-0.08378133177757263,-0.7120609879493713,0.15212710201740265,0.3935278356075287,-1.142277479171753,-0.012446174398064613,-0.004869151394814253,1.5618526935577393,-0.10782953351736069,0.04601582512259483,-0.039961718022823334,859.0,863.0,853.0,851.0
267244000,0.048,0.01992560736835003,-0.0756588876247406,-0.7820333242416382,0.15149691700935364,0.3897916376590729,-1.2523925304412842,-0.01701689139008522,-0.0029204341117292643,1.560302495956421,-0.08835326880216599,0.03802274167537689,-0.03515252098441124,859.0,862.0,852.0,850.0
267292000,0.048,0.0019314282108098269,-0.06762649863958359,-0.8555912375450134,0.14993253350257874,0.38342905044555664,-1.3617109060287476,-0.02083776891231537,-0.0012345744762569666,1.5589382648468018,-0.07403889298439026,0.033327363431453705,-0.02936146967113018,859.0,862.0,852.0,850.0
267340000,0.048,-0.01455265749245882,-0.05998682230710983,-0.9361264109611511,0.1475575715303421,0.37441933155059814,-1.4716360569000244,-0.023999657481908798,0.00020947697339579463,1.5576417446136475,-0.060629695653915405,0.028647059574723244,-0.023897361010313034,858.0,862.0,852.0,850.0
267396000,0.056,-0.03081403113901615,-0.051749661564826965,-1.0415323972702026,0.1439456045627594,0.3603772222995758,-1.6012753248214722,-0.026864666491746902,0.001619588816538453,1.55600106716156,-0.04286428540945053,0.023701176047325134,-0.01807173155248165,858.0,861.0,851.0,849.0
267444000,0.048,-0.04390401393175125,-0.04496987164020538,-1.1350141763687134,0.13995033502578735,0.3463265597820282,-1.7111996412277222,-0.028585439547896385,0.0026447810232639313,1.5548561811447144,-0.029256656765937805,0.020385244861245155,-0.013113699853420258,857.0,860.0,850.0,849.0
267492000,0.048,-0.05748814716935158,-0.03844177722930908,-1.2372227907180786,0.1350206434726715,0.33115875720977783,-1.8215022087097168,-0.029738593846559525,0.003452987875789404,1.554114818572998,-0.018972579389810562,0.014836377464234829,-0.008458003401756287,857.0,859.0,850.0,849.0
267540000,0.048,-0.07019174844026566,-0.03224819153547287,-1.3431059122085571,0.12950143218040466,0.3147941827774048,-1.930915117263794,-0.030482862144708633,0.004076116252690554,1.55381441116333,-0.012060520239174366,0.010751891881227493,-0.00393684720620513,856.0,858.0,850.0,848.0
267596000,0.056,-0.08264172822237015,-0.024209003895521164,-1.4751633405685425,0.1230236142873764,0.2946121394634247,-2.058566093444824,-0.030973302200436592,0.004617515951395035,1.5536508560180664,-0.005975958425551653,0.008516226895153522,0.00026937416987493634,855.0,857.0,850.0,848.0
267644000,0.048,-0.09108045697212219,-0.01656161993741989,-1.5963712930679321,0.1176232397556305,0.2763613760471344,-2.1679294109344482,-0.031133057549595833,0.005041404161602259,1.5536417961120605,-0.0003109327226411551,0.009277388453483582,0.004001494497060776,854.0,856.0,849.0,848.0
267692000,0.048,-0.0987076461315155,-0.009590182453393936,-1.7198320627212524,0.11195779591798782,0.25772586464881897,-2.2755258083343506,-0.03106067143380642,0.005484345834702253,1.5538244247436523,0.004061535000801086,0.008748827502131462,0.007038205862045288,850.0,852.0,846.0,845.0
267740000,0.048,-0.10469610244035721,-0.004602309316396713,-1.8557251691818237,0.10509809106588364,0.23844623565673828,-2.378718137741089,-0.0307371374219656,0.0058986721560359,1.5542486906051636,0.009518716484308243,0.007278288248926401,0.00967898778617382,831.0,833.0,828.0,827.0
267788000,0.048,-0.10981886088848114,-0.00035742565523833036,-1.9942504167556763,0.09775365144014359,0.21873685717582703,-2.4619791507720947,-0.030141368508338928,0.006192636210471392,1.554860234260559,0.01568317785859108,0.0025750650092959404,0.011375772766768932,813.0,815.0,812.0,811.0
267836000,0.048,-0.11401046067476273,0.003507407149299979,-2.134451150894165,0.08988893777132034,0.1987440139055252,-2.5252022743225098,-0.02924647554755211,0.006256463937461376,1.5555716753005981,0.0212081465870142,-0.0011752416612580419,0.012836460024118423,804.0,806.0,803.0,802.0
267884000,0.048,-0.11642765253782272,0.007305564358830452,-2.2815346717834473,0.08165793120861053,0.1786702573299408,-2.5742573738098145,-0.02818731591105461,0.00615590438246727,1.5562071800231934,0.023746024817228317,-0.004609643016010523,0.013580059632658958,796.0,797.0,795.0,794.0
267932000,0.048,-0.11837256699800491,0.010590218007564545,-2.4268147945404053,0.0704062357544899,0.16080015897750854,-2.611234664916992,-0.027031520381569862,0.005925554316490889,1.527123212814331,0.025235632434487343,-0.006575426086783409,0.012493249028921127,789.0,791.0,788.0,789.0
267980000,0.048,-0.11944421380758286,0.01335179340094328,-2.573835849761963,0.061305925250053406,0.14127519726753235,-2.6415231227874756,-0.025781596079468727,0.005459234584122896,1.5278342962265015,0.02975621446967125,-0.014081237837672234,0.02000986784696579,798.0,799.0,772.0,772.0
268028000,0.048,-0.1199246346950531,0.015608837828040123,-2.720426082611084,0.051560334861278534,0.12186725437641144,-2.6643924713134766,-0.024244893342256546,0.0047668879851698875,1.526583194732666,0.03394489362835884,-0.01659608818590641,0.03128465265035629,793.0,794.0,769.0,769.0
268076000,0.048,-0.11996667087078094,0.017384974285960197,-2.8649544715881348,0.04230927675962448,0.10309380292892456,-2.681664228439331,-0.022606847807765007,0.004020164255052805,1.5272120237350464,0.03453752025961876,-0.017161061987280846,0.04206183925271034,791.0,791.0,769.0,769.0
268124000,0.048,-0.12061844021081924,0.017495376989245415,-3.0095787048339844,0.032371293753385544,0.08581478148698807,-2.695854902267456,-0.021062251180410385,0.0033003801945596933,1.52924382686615,0.029759932309389114,-0.01725444756448269,0.05080559849739075,787.0,787.0,770.0,770.0
268172000,0.048,-0.12075554579496384,0.01729450188577175,-3.15234375,0.022725865244865417,0.0702461376786232,-2.7074434757232666,-0.01975991763174534,0.002566239796578884,1.5278078317642212,0.025299059227108955,-0.018708379939198494,0.05815817043185234,786.0,786.0,769.0,770.0
268224000,0.052,-0.12114479392766953,0.015702582895755768,-3.2953147888183594,0.01303945668041706,0.05595683306455612,-2.717547655105591,-0.01868850737810135,0.0017092402558773756,1.5282924175262451,0.020562637597322464,-0.021315986290574074,0.06509590893983841,784.0,784.0,770.0,770.0
268272000,0.048,-0.12230300903320312,0.011925811879336834,-3.440002918243408,0.0030010638292878866,0.04288462921977043,-2.727278232574463,-0.017815643921494484,0.0008129286579787731,1.5301508903503418,0.01658453792333603,-0.023292437195777893,0.07040058821439743,782.0,782.0,770.0,771.0
268320000,0.048,-0.12274105101823807,0.008250188082456589,-3.5828399658203125,-0.006759726908057928,0.03065609559416771,-2.7355997562408447,-0.01709795370697975,-0.00030411669285967946,1.5323259830474854,0.013932215981185436,-0.028597719967365265,0.07406899333000183,780.0,780.0,772.0,772.0
268376000,0.056,-0.12400410324335098,0.003560574958100915,-3.759996175765991,-0.017738409340381622,0.01734825037419796,-2.746774911880493,-0.016338486224412918,-0.0018931367667391896,1.5357284545898438,0.01445357222110033,-0.03103979118168354,0.07684065401554108,778.0,777.0,773.0,773.0
268424000,0.048,-0.12436032295227051,-0.00027313828468322754,-3.9099254608154297,-0.025808438658714294,0.006287055090069771,-2.7550079822540283,-0.01568463072180748,-0.0032475576736032963,1.5404173135757446,0.013620346784591675,-0.029816841706633568,0.07741504162549973,775.0,775.0,775.0,774.0
268472000,0.048,-0.12436524033546448,-0.0028962071519345045,-4.061306953430176,-0.03231985867023468,-0.004195148590952158,-2.762868642807007,-0.015084069222211838,-0.004507717676460743,1.5467345714569092,0.013080663979053497,-0.025852162390947342,0.07559064030647278,772.0,771.0,777.0,776.0
268520000,0.048,-0.1240423321723938,-0.0045677851885557175,-4.214125633239746,-0.037187375128269196,-0.014153674244880676,-2.770441770553589,-0.014477104879915714,-0.005517651326954365,1.5526206493377686,0.01324284728616476,-0.019328484311699867,0.07195031642913818,770.0,769.0,779.0,778.0
268576000,0.056,-0.12271096557378769,-0.006506729871034622,-4.3887810707092285,-0.04120667651295662,-0.025602145120501518,-2.7776079177856445,-0.013768929056823254,-0.006305848713964224,1.5598881244659424,0.013070681132376194,-0.011688170954585075,0.06523555517196655,767.0,767.0,781.0,780.0
268624000,0.048,-0.12079115957021713,-0.00603555329144001,-4.542821407318115,-0.04232756793498993,-0.03587404638528824,-2.7845678329467773,-0.013141573406755924,-0.006703951396048069,1.5667742490768433,0.015038314275443554,-0.0060629392974078655,0.057377975434064865,765.0,764.0,783.0,781.0
268672000,0.048,-0.11817967891693115,-0.005728650372475386,-4.693874359130859,-0.042604461312294006,-0.04627164080739021,-2.7904052734375,-0.01233074814081192,-0.006798872258514166,1.5736775398254395,0.019806547090411186,0.0010639447718858719,0.047642502933740616,763.0,762.0,784.0,784.0
268720000,0.048,-0.11428374797105789,-0.005731051322072744,-4.843509197235107,-0.0423971563577652,-0.056804824620485306,-2.7955567836761475,-0.011338265612721443,-0.006629202980548143,1.5791558027267456,0.023313328623771667,0.005310609471052885,0.03710729628801346,761.0,761.0,785.0,785.0
268768000,0.048,-0.10867304354906082,-0.0061110551469028,-4.992877006530762,-0.04208257049322128,-0.0676412433385849,-2.8002548217773438,-0.010155375115573406,-0.006390768568962812,1.5840206146240234,0.027236439287662506,0.0059506394900381565,0.025737479329109192,760.0,761.0,785.0,786.0
268816000,0.048,-0.10281530767679214,-0.006525997072458267,-5.139971733093262,-0.04192553460597992,-0.07823452353477478,-2.804377555847168,-0.008758888579905033,-0.006144342012703419,1.5879358053207397,0.03142945468425751,0.003984997048974037,0.013724315911531448,761.0,761.0,786.0,786.0
268864000,0.048,-0.09471976011991501,-0.00613984651863575,-5.291251182556152,-0.04189370945096016,-0.08898051083087921,-2.8093082904815674,-0.0071816230192780495,-0.006008352153003216,1.5907351970672607,0.03431949391961098,0.003149135736748576,0.002046027220785618,761.0,761.0,785.0,785.0
268912000,0.048,-0.0863439068198204,-0.005759232211858034,-5.441148281097412,-0.04192151129245758,-0.09930675476789474,-2.8137176036834717,-0.005450164899230003,-0.00588284432888031,1.5924931764602661,0.039170123636722565,0.0019771025981754065,-0.008907057344913483,762.0,762.0,785.0,785.0
268960000,0.048,-0.07815587520599365,-0.00591957988217473,-5.590281963348389,-0.04245516657829285,-0.10923019796609879,-2.817948579788208,-0.0034635458141565323,-0.005816537421196699,1.5931837558746338,0.0433475524187088,0.002042184118181467,-0.018864629790186882,763.0,763.0,783.0,784.0
269008000,0.048,-0.07032192498445511,-0.007894199341535568,-5.744164943695068,-0.0438406802713871,-0.11819018423557281,-2.8231263160705566,-0.0013527267146855593,-0.005799972917884588,1.5925770998001099,0.04388270154595375,-0.0017755212029442191,-0.028072457760572433,764.0,764.0,781.0,782.0
269056000,0.048,-0.06262144446372986,-0.009783840738236904,-5.895232677459717,-0.045721542090177536,-0.1257731020450592,-2.8274877071380615,0.0006777849630452693,-0.00600388552993536,1.5913255214691162,0.040779419243335724,-0.006815720349550247,-0.03496063873171806,766.0,765.0,780.0,781.0
269104000,0.048,-0.053606778383255005,-0.0108427032828331,-6.050890922546387,-0.04766170680522919,-0.1327964812517166,-2.83284068107605,0.002516333246603608,-0.006395237985998392,1.5898469686508179,0.036790478974580765,-0.009531148709356785,-0.040746401995420456,767.0,767.0,778.0,779.0
269152000,0.048,-0.044212836772203445,-0.0115912901237607,-6.206781387329102,-0.049460798501968384,-0.13877803087234497,-2.838014602661133,0.004195463843643665,-0.006871089804917574,1.5882682800292969,0.034761011600494385,-0.009651107713580132,-0.04520602151751518,768.0,768.0,776.0,777.0
269200000,0.048,-0.035212937742471695,-0.012424902990460396,-6.359704494476318,-0.05079810693860054,-0.14357714354991913,-2.842083215713501,0.005854330025613308,-0.007268789689987898,1.5864965915679932,0.03491624817252159,-0.007647503167390823,-0.04828894883394241,770.0,769.0,775.0,775.0
269256000,0.056,-0.026620952412486076,-0.016462918370962143,-6.538395404815674,-0.05275822430849075,-0.1477396935224533,-2.846623420715332,0.0077299983240664005,-0.00763896107673645,1.5843441486358643,0.03294340893626213,-0.008145998232066631,-0.0498395636677742,771.0,770.0,773.0,774.0
269304000,0.048,-0.01945045217871666,-0.019608650356531143,-6.688822269439697,-0.054384902119636536,-0.14990030229091644,-2.8497133255004883,0.009189609438180923,-0.008042299188673496,1.5827373266220093,0.028819384053349495,-0.010587581433355808,-0.050535593181848526,772.0,771.0,772.0,774.0
269352000,0.048,-0.014516571536660194,-0.02316068857908249,-6.839749336242676,-0.056720491498708725,-0.14987120032310486,-2.8529932498931885,0.010417702607810497,-0.008572210557758808,1.5809071063995361,0.02304929308593273,-0.013116462156176567,-0.05049881339073181,773.0,772.0,771.0,773.0
269400000,0.048,-0.011473623104393482,-0.02708464488387108,-6.990933418273926,-0.059368032962083817,-0.1479647159576416,-2.8565609455108643,0.011381581425666809,-0.009200257249176502,1.5783681869506836,0.01522107981145382,-0.015870848670601845,-0.049023088067770004,774.0,773.0,770.0,772.0
269456000,0.056,-0.007843075320124626,-0.031245457008481026,-7.1650285720825195,-0.061957214027643204,-0.14382466673851013,-2.8561129570007324,0.011920955032110214,-0.010082337073981762,1.5752736330032349,0.004112166818231344,-0.018376262858510017,-0.04661896452307701,751.0,750.0,746.0,746.0
269504000,0.048,-0.005216006655246019,-0.03419971838593483,-7.313950061798096,-0.0632740780711174,-0.13917405903339386,-2.8295462131500244,0.011999853886663914,-0.010884770192205906,1.5733349323272705,-0.0020198978018015623,-0.016544589772820473,-0.04393739625811577,720.0,718.0,713.0,714.0
269552000,0.048,-0.0024180132895708084,-0.036908023059368134,-7.458784103393555,-0.06381861865520477,-0.13380393385887146,-2.7722461223602295,0.011797863058745861,-0.011540432460606098,1.5718088150024414,-0.007152673322707415,-0.0127159608528018,-0.0409170500934124,699.0,699.0,693.0,693.0
269600000,0.048,0.00032424923847429454,-0.039926718920469284,-7.598729610443115,-0.06384281814098358,-0.12839855253696442,-2.6908087730407715,0.011472615413367748,-0.012067550793290138,1.5706833600997925,-0.007714890409260988,-0.010821642354130745,-0.037571776658296585,684.0,684.0,678.0,678.0
269656000,0.056,0.0035172521602362394,-0.04367781803011894,-7.754744529724121,-0.06346409767866135,-0.12255388498306274,-2.573345422744751,0.01111163105815649,-0.012627113610506058,1.5697129964828491,-0.006228533107787371,-0.010842020623385906,-0.03378288820385933,672.0,672.0,665.0,665.0
269712000,0.056,0.006846223026514053,-0.0471857450902462,-7.9038310050964355,-0.06277330964803696,-0.1170971617102623,-2.439453363418579,0.010875162668526173,-0.01324977446347475,1.5690487623214722,-0.003452637931331992,-0.011691087856888771,-0.03032166324555874,665.0,665.0,659.0,659.0
269760000,0.048,0.009470165707170963,-0.050626467913389206,-8.032864570617676,-0.06202513352036476,-0.11272650212049484,-2.318558931350708,0.010804543271660805,-0.013783863745629787,1.5684895515441895,-0.0008838509675115347,-0.011335858143866062,-0.027309123426675797,660.0,660.0,654.0,654.0
269816000,0.056,0.012676442041993141,-0.05422724410891533,-8.17283821105957,-0.06062130630016327,-0.10800308734178543,-2.1709506511688232,0.01085787732154131,-0.014410209842026234,1.5678141117095947,0.0010669783223420382,-0.011786743998527527,-0.02410239726305008,659.0,659.0,653.0,653.0
269864000,0.048,0.01654542051255703,-0.058402400463819504,-8.289361000061035,-0.05993548035621643,-0.10433206707239151,-2.0433778762817383,0.010938026942312717,-0.014932451769709587,1.5669550895690918,0.0006685220287181437,-0.011809280142188072,-0.021421557292342186,660.0,660.0,654.0,654.0
269912000,0.048,0.02052457071840763,-0.06244295835494995,-8.398239135742188,-0.05901852250099182,-0.10074324905872345,-1.9162260293960571,0.011021718382835388,-0.01550970133394003,1.5660789012908936,0.002575343009084463,-0.013539217412471771,-0.018396742641925812,662.0,662.0,656.0,656.0
269960000,0.048,0.02409093827009201,-0.06608869880437851,-8.499444007873535,-0.05772029235959053,-0.09712158888578415,-1.7911691665649414,0.011187984608113766,-0.01615656539797783,1.5652719736099243,0.004093767609447241,-0.014637271873652935,-0.015768472105264664,667.0,667.0,660.0,660.0
270008000,0.048,0.026230940595269203,-0.06931018084287643,-8.595714569091797,-0.055542152374982834,-0.09323135018348694,-1.6703071594238281,0.011449179612100124,-0.01684420183300972,1.5647304058074951,0.004790773615241051,-0.014509684406220913,-0.013243193738162518,672.0,671.0,665.0,665.0
270064000,0.056,0.02882663905620575,-0.07261812686920166,-8.698055267333984,-0.05223020166158676,-0.08849875628948212,-1.5348666906356812,0.011715391650795937,-0.01749514974653721,1.5641040802001953,0.003527755383402109,-0.00942008662968874,-0.010077815502882004,677.0,677.0,671.0,671.0
270112000,0.048,0.02929629199206829,-0.07279304414987564,-8.784425735473633,-0.0475645549595356,-0.08336637169122696,-1.4260287284851074,0.011874725110828876,-0.017900142818689346,1.5638041496276855,0.0020616587717086077,-0.0067806304432451725,-0.007220746949315071,683.0,681.0,676.0,676.0
270160000,0.048,0.02964409627020359,-0.07246633619070053,-8.864343643188477,-0.042278774082660675,-0.0779675543308258,-1.3220934867858887,0.011846670880913734,-0.01805461011826992,1.5636653900146484,-0.004178404342383146,0.0013612925540655851,-0.005042054690420628,687.0,686.0,681.0,681.0
270216000,0.056,0.030612487345933914,-0.07179033011198044,-8.949457168579102,-0.03583064302802086,-0.07149650901556015,-1.2072685956954956,0.011452045291662216,-0.017758652567863464,1.5635826587677002,-0.010197850875556469,0.009519718587398529,-0.0026209813077002764,693.0,692.0,688.0,688.0
270264000,0.048,0.0321769043803215,-0.07069981098175049,-9.017075538635254,-0.030515404418110847,-0.06613538414239883,-1.115321159362793,0.010902614332735538,-0.01726345159113407,1.5636147260665894,-0.013202890753746033,0.01079332735389471,-0.0005197543650865555,698.0,697.0,694.0,693.0
270304000,0.04,0.03345538303256035,-0.06983117014169693,-9.06861686706543,-0.02629576250910759,-0.06193164363503456,-1.0429589748382568,0.010393692180514336,-0.01679789088666439,1.5636894702911377,-0.012661511078476906,0.013103405013680458,0.0005276899319142103,702.0,702.0,698.0,698.0
270312000,0.008,0.0337078720331192,-0.06966124475002289,-9.07841682434082,-0.025498846545815468,-0.061113398522138596,-1.0289777517318726,0.010292579419910908,-0.016700604930520058,1.5637081861495972,-0.013088516891002655,0.012744700536131859,0.0007080828072503209,703.0,703.0,699.0,699.0
270320000,0.008,0.03395940363407135,-0.06949254870414734,-9.088088989257812,-0.02471078559756279,-0.060320161283016205,-1.0151537656784058,0.010189817287027836,-0.016602443531155586,1.563727617263794,-0.013194921426475048,0.012828046455979347,0.0009422432631254196,704.0,704.0,700.0,700.0
270328000,0.008,0.03421010822057724,-0.06932513415813446,-9.097599029541016,-0.02395426481962204,-0.05953904986381531,-1.0014792680740356,0.010087878443300724,-0.01650567725300789,1.5637508630752563,-0.013061833567917347,0.01259120274335146,0.00148487719707191,706.0,706.0,703.0,702.0
270344000,0.016,0.03395672142505646,-0.06823480874300003,-9.11803150177002,-0.022189291194081306,-0.05787275359034538,-0.9750547409057617,0.00988937821239233,-0.016309907659888268,1.5638153553009033,-0.012461607344448566,0.013117608614265919,0.0019718576222658157,706.0,707.0,703.0,703.0
270352000,0.008,0.03384321555495262,-0.0677044466137886,-9.127981185913086,-0.021320128813385963,-0.057078778743743896,-0.9621051549911499,0.009795937687158585,-0.01620752550661564,1.5638585090637207,-0.011983342468738556,0.013805472292006016,0.0023415107280015945,707.0,707.0,704.0,704.0
270360000,0.008,0.03373662009835243,-0.06718352437019348,-9.137758255004883,-0.020475851371884346,-0.05627753958106041,-0.9493001103401184,0.009705956093966961,-0.016103338450193405,1.5639033317565918,-0.011472782120108604,0.013732901774346828,0.0025312199722975492,708.0,708.0,705.0,705.0
270376000,0.016,0.033547453582286835,-0.06616935133934021,-9.156862258911133,-0.018952978774905205,-0.0545864962041378,-0.9230830669403076,0.009416202083230019,-0.015976551920175552,1.56386137008667,-0.04039530083537102,-0.006727392785251141,-0.010223638266324997,399.0,215.0,297.0,1000.0
270384000,0.008,0.03346310555934906,-0.0656772255897522,-9.166131973266602,-0.019280556589365005,-0.05223139002919197,-0.9035751819610596,0.007951567880809307,-0.01685507223010063,1.5636481046676636,-0.24521291255950928,-0.15342549979686737,-0.02930445596575737,376.0,183.0,368.0,1000.0
270392000,0.008,0.03338323533535004,-0.06519730389118195,-9.175163269042969,-0.021218150854110718,-0.047686804085969925,-0.8796898126602173,0.004071095958352089,-0.019488349556922913,1.5632528066635132,-0.5739288926124573,-0.39262741804122925,-0.052123211324214935,336.0,150.0,627.0,1000.0
270400000,0.008,0.03330771252512932,-0.06472993642091751,-9.183928489685059,-0.024820523336529732,-0.04090418666601181,-0.8531054854393005,-0.0028120335191488266,-0.024319496005773544,1.562654972076416,-0.9608197808265686,-0.6753140687942505,-0.08050911873579025,341.0,150.0,782.0,1000.0
270408000,0.008,0.03323831409215927,-0.06427378952503204,-9.192416191101074,-0.029757417738437653,-0.03232310339808464,-0.8264384269714355,-0.012791416607797146,-0.031414952129125595,1.561849594116211,-1.3444446325302124,-0.9527137279510498,-0.1149929091334343,376.0,150.0,868.0,1000.0
270424000,0.016,0.033136118203401566,-0.0633787289261818,-9.208664894104004,-0.04118518903851509,-0.012584377080202103,-0.7822282314300537,-0.04063963145017624,-0.050987400114536285,1.5597364902496338,-1.9575008153915405,-1.3464823961257935,-0.19274435937404633,392.0,150.0,945.0,1000.0
270432000,0.008,0.03311791270971298,-0.06292685866355896,-9.216485023498535,-0.046553079038858414,-0.0026945683639496565,-0.7658411264419556,-0.05755748599767685,-0.06248587369918823,1.5584965944290161,-2.1745104789733887,-1.449238896369934,-0.23383821547031403,392.0,150.0,972.0,1000.0
270440000,0.008,0.03313301131129265,-0.06246158480644226,-9.224133491516113,-0.05112699791789055,0.006569807417690754,-0.7525336146354675,-0.07587810605764389,-0.07450736314058304,1.5571532249450684,-2.3408892154693604,-1.495951533317566,-0.2762463390827179,381.0,150.0,980.0,1000.0
270448000,0.008,0.03319420665502548,-0.06197448447346687,-9.2316312789917,-0.05462789908051491,0.014936785213649273,-0.7414922118186951,-0.09531378000974655,-0.08668582886457443,1.555701494216919,-2.4769458770751953,-1.4995075464248657,-0.3192986845970154,364.0,150.0,994.0,1000.0
270456000,0.008,0.03261891007423401,-0.06160459667444229,-9.240700721740723,-0.057134781032800674,0.022617921233177185,-0.7322491407394409,-0.11568516492843628,-0.09882057458162308,1.5541296005249023,-2.592433214187622,-1.4820826053619385,-0.3634057641029358,363.0,150.0,1000.0,1000.0
270472000,0.016,0.031734541058540344,-0.0607384629547596,-9.25836181640625,-0.05855392664670944,0.034045130014419556,-0.7165068984031677,-0.15852418541908264,-0.12258786708116531,1.550546646118164,-2.7604777812957764,-1.407482624053955,-0.45236170291900635,362.0,150.0,1000.0,1000.0
270480000,0.008,0.03145032003521919,-0.06022835150361061,-9.266963958740234,-0.057329531759023666,0.0376095250248909,-0.7097620368003845,-0.18076296150684357,-0.13401471078395844,1.5485087633132935,-2.8309574127197266,-1.3502347469329834,-0.4970312714576721,349.0,150.0,1000.0,1000.0
270488000,0.008,0.03128807619214058,-0.05965830385684967,-9.275409698486328,-0.054861653596162796,0.039690397679805756,-0.7035771608352661,-0.20350803434848785,-0.14510388672351837,1.546284794807434,-2.899545431137085,-1.2938778400421143,-0.5417772531509399,323.0,150.0,1000.0,1000.0
270496000,0.008,0.03126043826341629,-0.05902276560664177,-9.283697128295898,-0.05118649825453758,0.040253158658742905,-0.6978650093078613,-0.22669841349124908,-0.1558949500322342,1.5438655614852905,-2.9591610431671143,-1.2400661706924438,-0.5869356989860535,308.0,150.0,1000.0,1000.0
270512000,0.016,0.03165840730071068,-0.05753740295767784,-9.29979419708252,-0.040254827588796616,0.03664400801062584,-0.6877248287200928,-0.2741864323616028,-0.17653952538967133,1.5383689403533936,-3.067020893096924,-1.1203224658966064,-0.6771243214607239,301.0,150.0,1000.0,968.0
270520000,0.008,0.0321093387901783,-0.0566781647503376,-9.307622909545898,-0.03306664153933525,0.03252777084708214,-0.6833583116531372,-0.29848599433898926,-0.18644797801971436,1.5352728366851807,-3.1211354732513428,-1.0674927234649658,-0.7224260568618774,301.0,150.0,1000.0,927.0
270536000,0.016,0.033574674278497696,-0.05471070483326912,-9.322751998901367,-0.015261106193065643,0.019311552867293358,-0.6749255061149597,-0.34771084785461426,-0.20546287298202515,1.528319239616394,-3.177311420440674,-0.9344746470451355,-0.8094508051872253,301.0,150.0,1000.0,896.0
270544000,0.008,0.03460971638560295,-0.053598809987306595,-9.33003044128418,-0.004395755939185619,0.010048264637589455,-0.6702092885971069,-0.3723164498806,-0.21429289877414703,1.5243357419967651,-3.1797852516174316,-0.8351939916610718,-0.8511672019958496,291.0,155.0,1000.0,877.0
270552000,0.008,0.03585784137248993,-0.052400629967451096,-9.33709716796875,0.00786314532160759,-0.0010731796501204371,-0.6651520133018494,-0.3966902196407318,-0.22252169251441956,1.5199146270751953,-3.1611976623535156,-0.7220492362976074,-0.8923218846321106,280.0,178.0,1000.0,887.0
270560000,0.008,0.03732750192284584,-0.0511162169277668,-9.343941688537598,0.02150450088083744,-0.014129551127552986,-0.6602487564086914,-0.4206240177154541,-0.23009148240089417,1.5149942636489868,-3.1185567378997803,-0.5981903672218323,-0.9321154356002808,277.0,196.0,1000.0,899.0
270576000,0.016,0.040970057249069214,-0.04829077795147896,-9.356986999511719,0.053007546812295914,-0.04592258110642433,-0.6528606414794922,-0.466646283864975,-0.2430679053068161,1.503360390663147,-3.00414776802063,-0.3265485465526581,-1.0116345882415771,280.0,233.0,1000.0,917.0
270584000,0.008,0.04151260107755661,-0.04673001542687416,-9.364156723022461,0.0705263689160347,-0.06343328952789307,-0.6509103178977966,-0.48865512013435364,-0.24856925010681152,1.4965475797653198,-2.943220853805542,-0.20042943954467773,-1.051250696182251,281.0,256.0,1000.0,921.0
270592000,0.008,0.04235074669122696,-0.04508595913648605,-9.371057510375977,0.08919178694486618,-0.08260161429643631,-0.6506162285804749,-0.5099319815635681,-0.2535371780395508,1.489098072052002,-2.8758926391601562,-0.08526308089494705,-1.0905699729919434,281.0,282.0,1000.0,924.0
270600000,0.008,0.043495506048202515,-0.04335968941450119,-9.37768840789795,0.10901276767253876,-0.1032991036772728,-0.6520148515701294,-0.5304570198059082,-0.2580312192440033,1.481007695198059,-2.8061585426330566,0.025990886613726616,-1.1294547319412231,285.0,305.0,1000.0,927.0
270616000,0.016,0.046747829765081406,-0.0396670363843441,-9.390144348144531,0.15187731385231018,-0.14878730475902557,-0.6598198413848877,-0.5692517161369324,-0.2658613920211792,1.462927222251892,-2.6661972999572754,0.22303923964500427,-1.2060067653656006,301.0,348.0,1000.0,929.0
270624000,0.008,0.048876937478780746,-0.03770541399717331,-9.395995140075684,0.17482531070709229,-0.173380509018898,-0.6662883758544922,-0.5874698162078857,-0.2693694829940796,1.4529942274093628,-2.587064504623413,0.3069820702075958,-1.2436013221740723,308.0,370.0,1000.0,930.0
270632000,0.008,0.05135565251111984,-0.03567081317305565,-9.401577949523926,0.19876733422279358,-0.19911383092403412,-0.6744283437728882,-0.604836642742157,-0.27267760038375854,1.4424830675125122,-2.502969980239868,0.38694292306900024,-1.2809827327728271,309.0,393.0,1000.0,938.0
270640000,0.008,0.05419452115893364,-0.03356664627790451,-9.406893730163574,0.22369518876075745,-0.2258436381816864,-0.6842470169067383,-0.6213405728340149,-0.2758328318595886,1.431414246559143,-2.417785406112671,0.459978848695755,-1.3173799514770508,316.0,414.0,1000.0,942.0
270656000,0.016,0.060992296785116196,-0.02916679158806801,-9.416732788085938,0.27633699774742126,-0.28196707367897034,-0.7090586423873901,-0.6517055034637451,-0.28198274970054626,1.407775640487671,-2.235738515853882,0.573536217212677,-1.3894907236099243,339.0,452.0,1000.0,945.0
270664000,0.008,0.06497254967689514,-0.02688000537455082,-9.421258926391602,0.30407974123954773,-0.31123054027557373,-0.7239315509796143,-0.6654891967773438,-0.28510627150535583,1.39524507522583,-2.136650800704956,0.619405210018158,-1.4249955415725708,349.0,471.0,1000.0,949.0
270672000,0.008,0.06935542076826096,-0.02454121597111225,-9.425555229187012,0.33279091119766235,-0.3411552906036377,-0.7404323220252991,-0.6783248782157898,-0.28830981254577637,1.3823097944259644,-2.036849021911621,0.6574511528015137,-1.459915041923523,356.0,490.0,1000.0,956.0
270680000,0.008,0.07415126264095306,-0.022155549377202988,-9.429594993591309,0.3623965382575989,-0.3716779053211212,-0.7585356831550598,-0.6902079582214355,-0.29165324568748474,1.3690247535705566,-1.9344568252563477,0.6842721104621887,-1.494031310081482,369.0,507.0,1000.0,958.0
270688000,0.008,0.07937031239271164,-0.01972857117652893,-9.433382034301758,0.3929117023944855,-0.40273571014404297,-0.7781954407691956,-0.7011155486106873,-0.29519081115722656,1.355441927909851,-1.8274704217910767,0.7020581960678101,-1.5280711650848389,398.0,540.0,1000.0,961.0
270696000,0.008,0.08502252399921417,-0.017265811562538147,-9.436919212341309,0.4243362843990326,-0.43423911929130554,-0.7993415594100952,-0.7110353112220764,-0.2989615499973297,1.3416081666946411,-1.7185585498809814,0.711897075176239,-1.5607901811599731,397.0,539.0,1000.0,963.0
270712000,0.016,0.09816012531518936,-0.010767189785838127,-9.443846702575684,0.49075230956077576,-0.4980609714984894,-0.8463924527168274,-0.7278773188591003,-0.3073488771915436,1.313378930091858,-1.4950944185256958,0.7064778804779053,-1.6250722408294678,429.0,568.0,1000.0,966.0
270720000,0.008,0.10565245896577835,-0.006771846674382687,-9.447258949279785,0.525291383266449,-0.5305609703063965,-0.8719793558120728,-0.7348530292510986,-0.31188130378723145,1.2995837926864624,-1.3835150003433228,0.694240391254425,-1.6562247276306152,445.0,583.0,1000.0,966.0
270736000,0.016,0.12202244251966476,0.001171986456029117,-9.453344345092773,0.5970334410667419,-0.596028745174408,-0.9266228675842285,-0.7458521127700806,-0.3220050036907196,1.2716680765151978,-1.1614136695861816,0.660454273223877,-1.716274619102478,476.0,609.0,1000.0,971.0
270744000,0.008,0.13091686367988586,0.005111604928970337,-9.45602798461914,0.6342518329620361,-0.6289318203926086,-0.9555542469024658,-0.7498781681060791,-0.32758572697639465,1.2576122283935547,-1.050346851348877,0.6388542056083679,-1.745172381401062,492.0,620.0,1000.0,974.0
270752000,0.008,0.14029519259929657,0.009023995138704777,-9.458479881286621,0.672393262386322,-0.661853551864624,-0.9855160713195801,-0.7529345750808716,-0.33351823687553406,1.2435193061828613,-0.9405161142349243,0.613503098487854,-1.773378610610962,509.0,628.0,1000.0,979.0
270760000,0.008,0.15016546845436096,0.012905214913189411,-9.460704803466797,0.7114309072494507,-0.6947433352470398,-1.0164979696273804,-0.7550358772277832,-0.3398078680038452,1.2294028997421265,-0.8334187865257263,0.5850080847740173,-1.8013092279434204,529.0,641.0,1000.0,981.0
270776000,0.016,0.17141328752040863,0.020558685064315796,-9.464560508728027,0.7922138571739197,-0.7601280808448792,-1.0814876556396484,-0.7565075159072876,-0.3534626066684723,1.2011696100234985,-0.6319127082824707,0.5184497237205505,-1.8541899919509888,565.0,668.0,1000.0,982.0
270784000,0.008,0.18280629813671112,0.024324005469679832,-9.466175079345703,0.8339509963989258,-0.79246586561203,-1.1155577898025513,-0.7559462189674377,-0.36081382632255554,1.1870695352554321,-0.5373570322990417,0.4835011959075928,-1.878882884979248,589.0,685.0,1000.0,982.0
270792000,0.008,0.1947210729122162,0.028037693351507187,-9.467591285705566,0.876554548740387,-0.8245410323143005,-1.1508443355560303,-0.7545539140701294,-0.36849263310432434,1.172983169555664,-0.44614583253860474,0.4483657777309418,-1.9024611711502075,625.0,710.0,1000.0,985.0
270800000,0.008,0.2071688324213028,0.031702663749456406,-9.468819618225098,0.9202094674110413,-0.8561612963676453,-1.187370777130127,-0.7523363828659058,-0.37648841738700867,1.1588069200515747,-0.35774514079093933,0.4144849479198456,-1.9244930744171143,649.0,727.0,1000.0,987.0
270808000,0.008,0.22015883028507233,0.03531624376773834,-9.469869613647461,0.9647710919380188,-0.8873423337936401,-1.225262999534607,-0.749326765537262,-0.38476449251174927,1.1446278095245361,-0.2734468877315521,0.3810158371925354,-1.9453949928283691,684.0,752.0,1000.0,991.0
