timestamp,dt,x,y,z,vx,vy,vz,roll,pitch,yaw,roll_rate,pitch_rate,yaw_rate,motor1,motor2,motor3,motor4
5440000,0.0,-0.10576765984296799,0.0825229063630104,-0.41687676310539246,0.026707198470830917,0.0025691355112940073,0.03750181570649147,0.004830863326787949,-0.0006064034532755613,1.5694491863250732,0.00034360861172899604,-0.00019423980847932398,-0.00013501150533556938,0.0,0.0,0.0,0.0
5488000,0.048,-0.10396257042884827,0.08287543803453445,-0.4151122272014618,0.025434130802750587,0.0006802058196626604,0.039736200124025345,0.004704596940428019,-0.0005423264228738844,1.5693706274032593,0.00027083608438260853,4.06811450375244e-05,-4.762109165312722e-05,0.0,0.0,0.0,0.0
5536000,0.048,-0.10137654095888138,0.08350209146738052,-0.4132576584815979,0.023897122591733932,-0.001987847965210676,0.041720304638147354,0.004506034776568413,-0.0004758975701406598,1.5692702531814575,-4.258015542291105e-05,0.00021343704429455101,1.4669769370811991e-05,0.0,0.0,0.0,0.0
5592000,0.056,-0.09806657582521439,0.08437632769346237,-0.41164472699165344,0.02244753949344158,-0.005185049492865801,0.043651312589645386,0.004276698920875788,-0.00041013810550794005,1.5692447423934937,2.535153180360794e-05,3.60995763912797e-05,0.0001734090765239671,0.0,0.0,0.0,0.0
5640000,0.048,-0.09446054697036743,0.08562354743480682,-0.41063085198402405,0.0215765330940485,-0.008224783465266228,0.04495711252093315,0.004078479018062353,-0.0003716513456311077,1.5692369937896729,0.0001789514790289104,5.340819916455075e-05,-0.00012028278433717787,0.0,0.0,0.0,0.0
5688000,0.048,-0.0910792350769043,0.08669666945934296,-0.4099508225917816,0.02093709446489811,-0.01093798503279686,0.04594200849533081,0.003911480773240328,-0.0003454368270467967,1.569221019744873,0.00021164592180866748,7.421055488521233e-05,3.7105215596966445e-05,0.0,0.0,0.0,0.0
5736000,0.048,-0.08639596402645111,0.08502110093832016,-0.4077082574367523,0.018160227686166763,-0.01392801571637392,0.04695877432823181,0.003742517437785864,-0.0002847791474778205,1.569153904914856,0.00020684288756456226,0.00011423548858147115,5.6183780543506145e-05,0.0,0.0,0.0,0.0
5792000,0.056,-0.08058567345142365,0.08176799863576889,-0.40478408336639404,0.014221778139472008,-0.017274856567382812,0.04794372618198395,0.0035433636512607336,-0.00017243807087652385,1.568999171257019,-2.3004889953881502e-05,-5.3444309742189944e-05,8.37461557239294e-05,0.0,0.0,0.0,0.0
5840000,0.048,-0.07696925103664398,0.07913234084844589,-0.4039277732372284,0.011424561962485313,-0.019771425053477287,0.048236798495054245,0.003395910607650876,-7.477933104382828e-05,1.5688656568527222,-2.2127744159661233e-05,0.0003234517353121191,-0.00014890034799464047,0.0,0.0,0.0,0.0
5888000,0.048,-0.07803182303905487,0.07635580003261566,-0.40829920768737793,0.009040052071213722,-0.020720137283205986,0.046384863555431366,0.0032943987753242254,3.72617068933323e-05,1.5687254667282104,-5.305914964992553e-05,0.0003112547565251589,0.00017351703718304634,0.0,0.0,0.0,0.0
5936000,0.048,-0.0786684975028038,0.07380840182304382,-0.412326455116272,0.007047224789857864,-0.021768447011709213,0.04466598480939865,0.003217056393623352,0.00013350864173844457,1.568658709526062,7.05472775734961e-05,0.0002562401641625911,0.00011358613846823573,0.0,0.0,0.0,0.0
5984000,0.048,-0.07942133396863937,0.07301097363233566,-0.4157644808292389,0.007959876209497452,-0.02195558324456215,0.04397764801979065,0.003206841880455613,0.00015840803098399192,1.5685656070709229,-0.00025918573373928666,6.064991612220183e-05,0.00016925099771469831,0.0,0.0,0.0,0.0
6032000,0.048,-0.0801449865102768,0.07318413257598877,-0.41876021027565,0.010006837546825409,-0.02173476666212082,0.0436723567545414,0.0032590744085609913,0.00010733177623478696,1.568479299545288,0.0002863841946236789,-6.78012365824543e-05,5.8021167205879465e-05,0.0,0.0,0.0,0.0
6080000,0.048,-0.08066663891077042,0.07357798516750336,-0.42150652408599854,0.011920689605176449,-0.021488750353455544,0.0434010773897171,0.003332040971145034,4.2742725781863555e-05,1.5683635473251343,0.0002165728365071118,0.0001545554696349427,1.8473116142558865e-05,0.0,0.0,0.0,0.0
6128000,0.048,-0.0837341919541359,0.07324520498514175,-0.42103180289268494,0.01245085708796978,-0.019125783815979958,0.04575640708208084,0.0034604354295879602,2.172415224777069e-05,1.568196177482605,-0.00011162340524606407,-0.00012690969742834568,4.939906648360193e-05,0.0,0.0,0.0,0.0
6176000,0.048,-0.08642128109931946,0.07314430922269821,-0.4206066131591797,0.01310181338340044,-0.0169032271951437,0.04772058129310608,0.0035934115294367075,1.5200867892417591e-05,1.5679936408996582,4.017106766696088e-05,3.455991827649996e-05,5.0983962864847854e-05,0.0,0.0,0.0,0.0
6232000,0.056,-0.08929980546236038,0.07254017889499664,-0.4183517098426819,0.01390900183469057,-0.013972842134535313,0.050036221742630005,0.003747742623090744,1.9282942957943305e-05,1.5676692724227905,-0.0002507668104954064,-4.9230111471842974e-05,3.157161336275749e-05,0.0,0.0,0.0,0.0
6280000,0.048,-0.09167540073394775,0.07153426110744476,-0.4148005247116089,0.01468596886843443,-0.010990460403263569,0.05212901160120964,0.0038927316199988127,2.94826713798102e-05,1.5672838687896729,-0.0001278397539863363,-0.00023646187037229538,-2.7769030566560104e-05,0.0,0.0,0.0,0.0
6328000,0.048,-0.09388986974954605,0.07086308300495148,-0.4117452800273895,0.015430111438035965,-0.008306263945996761,0.05392448231577873,0.00402381457388401,4.3380921852076426e-05,1.5669320821762085,-2.0309948013164103e-05,-0.00013572453462984413,9.258576028514653e-05,0.0,0.0,0.0,0.0
6376000,0.048,-0.0995650514960289,0.07163835316896439,-0.40921899676322937,0.01691916212439537,-0.003942700568586588,0.055581022053956985,0.004173748195171356,5.223250627750531e-05,1.5666097402572632,-8.844674994179513e-06,-0.00029253613320179284,4.4222604628885165e-05,0.0,0.0,0.0,0.0
6432000,0.056,-0.10551457852125168,0.07270990312099457,-0.4066828191280365,0.018529698252677917,0.000563249341212213,0.05723107233643532,0.004328880924731493,6.469812069553882e-05,1.5662237405776978,-0.00016889613470993936,-8.27578769531101e-05,-0.0002125118626281619,152.0,150.0,150.0,152.0
6480000,0.048,-0.10919234901666641,0.0738048180937767,-0.40540793538093567,0.019431529566645622,0.0027983463369309902,0.05852788686752319,0.00440576858818531,7.807181100361049e-05,1.5660061836242676,-0.0002487536403350532,-0.00024118689179886132,-3.0447803510469384e-05,152.0,150.0,150.0,152.0
6528000,0.048,-0.1116243526339531,0.07499215006828308,-0.4048219919204712,0.019842442125082016,0.0037513445131480694,0.059566646814346313,0.0043995738960802555,0.00010346027556806803,1.565866470336914,-0.00021087159984745085,-5.486392183229327e-05,-0.00017222005408257246,152.0,150.0,150.0,152.0
6576000,0.048,-0.11380308866500854,0.07617421448230743,-0.40428465604782104,0.020232897251844406,0.004795292392373085,0.06057145074009895,0.004377515986561775,0.00012689048890024424,1.5657678842544556,6.296955689322203e-05,0.00020236043201293796,0.00011756480671465397,152.0,150.0,150.0,152.0
6632000,0.056,-0.1173112764954567,0.07696215808391571,-0.399247407913208,0.020974185317754745,0.006240880582481623,0.06400016695261002,0.004324802663177252,0.00012983618944417685,1.565781831741333,-0.0002025676949415356,-7.009648834355175e-05,-0.00010448427201481536,152.0,150.0,150.0,152.0
6680000,0.048,-0.1199469342827797,0.0777125209569931,-0.3954402804374695,0.02140008844435215,0.007391483057290316,0.06646960973739624,0.004269820638000965,0.0001217503595398739,1.5659509897232056,-7.414602441713214e-05,-3.0430543120019138e-05,0.0001400590263074264,152.0,150.0,150.0,152.0
6728000,0.048,-0.12346585094928741,0.07977892458438873,-0.3892405331134796,0.02254045382142067,0.008553536608815193,0.07000701874494553,0.004215372260659933,0.00010907860269071534,1.5662001371383667,-0.00013221055269241333,-1.962420719792135e-05,-9.008285269374028e-05,152.0,150.0,150.0,152.0
6776000,0.048,-0.12763787806034088,0.08296671509742737,-0.38110747933387756,0.024311242625117302,0.009760748594999313,0.07435259968042374,0.004155545495450497,6.22726438450627e-05,1.566394329071045,-0.0003532367118168622,-0.00035972875775769353,0.0001528558786958456,152.0,150.0,150.0,152.0
6832000,0.056,-0.131841778755188,0.08643569052219391,-0.37271884083747864,0.02598319761455059,0.01094378437846899,0.07873592525720596,0.004099966958165169,1.5726654964964837e-05,1.5667004585266113,-0.0002902666456066072,-0.0002147519844584167,1.729410905682016e-05,152.0,150.0,150.0,152.0
6880000,0.048,-0.1332026720046997,0.08904803544282913,-0.370977520942688,0.02732716128230095,0.010670331306755543,0.07889421284198761,0.004036198370158672,-3.924420161638409e-05,1.5670143365859985,-0.00013219568063504994,-8.21239227661863e-05,-4.9411941290600225e-05,152.0,150.0,150.0,152.0
6928000,0.048,-0.13437215983867645,0.09157755225896835,-0.3693811595439911,0.02862144447863102,0.010363330133259296,0.07910846918821335,0.0039778584614396095,-9.272032184526324e-05,1.5673322677612305,-0.00015699194045737386,-8.6904430645518e-05,0.0001305868790950626,152.0,150.0,150.0,152.0
6976000,0.048,-0.13588190078735352,0.09380525350570679,-0.36906030774116516,0.02937185764312744,0.010593960992991924,0.07836123555898666,0.0039328946731984615,-0.0001273983798455447,1.567587971687317,-0.0001541717501822859,9.043062891578302e-05,-7.963813550304621e-05,152.0,150.0,150.0,152.0
7032000,0.056,-0.13789895176887512,0.09605369716882706,-0.36994242668151855,0.029867002740502357,0.011066816747188568,0.07670769840478897,0.0038874284364283085,-0.00012796235387213528,1.5678026676177979,-4.886719398200512e-05,-0.0003634194436017424,5.0953101890627295e-05,152.0,150.0,150.0,151.0
7080000,0.048,-0.1394079178571701,0.09792497754096985,-0.3706163167953491,0.03025701455771923,0.01135016605257988,0.07558325678110123,0.003858946030959487,-0.00012254588364157826,1.5679112672805786,-0.00022030668333172798,4.26364058512263e-05,7.62531126383692e-05,152.0,150.0,150.0,151.0
7128000,0.048,-0.14223456382751465,0.09952817857265472,-0.37184417247772217,0.03027029149234295,0.012074855156242847,0.07335896044969559,0.003848183900117874,-8.85333283804357e-05,1.5680738687515259,-0.0002574108075350523,0.0002017103834077716,-1.1818759958259761e-05,152.0,150.0,150.0,152.0
7176000,0.048,-0.1447255164384842,0.1010911837220192,-0.37302064895629883,0.030354317277669907,0.01275359932333231,0.07149053364992142,0.003842389676719904,-4.640957558876835e-05,1.5681967735290527,-0.00020634067186620086,-0.00012907614291179925,0.00010379564628237858,152.0,150.0,150.0,152.0
7232000,0.056,-0.14612829685211182,0.10292480885982513,-0.3738141357898712,0.030369175598025322,0.012892981059849262,0.07003714889287949,0.0038375926669687033,-8.392218660446815e-06,1.5683866739273071,-0.00034492305712774396,-4.029589763376862e-05,0.0001562645484227687,152.0,150.0,150.0,152.0
7292000,0.06,-0.14594513177871704,0.10514107346534729,-0.3736911118030548,0.030452270060777664,0.012114515528082848,0.0694437325000763,0.00379736116155982,2.7809612220153213e-05,1.5688060522079468,-0.0005307740648277104,-0.00017491815378889441,0.00022236483346205205,152.0,150.0,150.0,152.0
7340000,0.048,-0.14523248374462128,0.10675802826881409,-0.3742147982120514,0.030833998695015907,0.011138111352920532,0.06917667388916016,0.003759966464713216,3.902939351974055e-05,1.5690584182739258,-0.00029739056481048465,0.00017120965640060604,-0.0001470127172069624,152.0,150.0,150.0,152.0
7388000,0.048,-0.14353586733341217,0.10856090486049652,-0.375377357006073,0.031737133860588074,0.009684732183814049,0.0689949095249176,0.0036771660670638084,2.33697792282328e-05,1.5692602396011353,-0.000510040728840977,-0.00020858715288341045,0.00012011454964522272,152.0,150.0,150.0,152.0
7436000,0.048,-0.1419394463300705,0.1103818267583847,-0.3762633800506592,0.03266214579343796,0.008411006070673466,0.06897106766700745,0.003596462542191148,-2.0953709736204473e-06,1.5694270133972168,-0.0005750093841925263,-0.00015878582780715078,0.0001301367301493883,152.0,150.0,150.0,152.0
7492000,0.056,-0.1443670690059662,0.10993221402168274,-0.37762582302093506,0.03241219371557236,0.009241290390491486,0.06750862300395966,0.0035557930823415518,-4.751665528601734e-06,1.5695648193359375,-0.00034315421362407506,0.00012159186735516414,-8.92368916538544e-06,189.0,150.0,179.0,159.0
7540000,0.048,-0.14670903980731964,0.1095389574766159,-0.3786826431751251,0.032280661165714264,0.010129614733159542,0.06629310548305511,0.003539383178576827,8.513186912750825e-06,1.5695759057998657,-0.00042864459101110697,-2.5567147531546652e-05,-3.9061123970896006e-05,203.0,151.0,180.0,173.0
7588000,0.048,-0.14919322729110718,0.10907178372144699,-0.3791544437408447,0.03195565566420555,0.01105498243123293,0.0655931606888771,0.0035260284785181284,2.8399894290487282e-05,1.5695711374282837,-0.00041707788477651775,-6.264781404752284e-05,0.00018773446208797395,208.0,157.0,185.0,179.0
7636000,0.048,-0.1521732211112976,0.10821300745010376,-0.37870272994041443,0.031207621097564697,0.012176730670034885,0.06559096276760101,0.0035211716312915087,7.491257565561682e-05,1.569527268409729,-0.0003470557276159525,-0.0002775027824100107,0.00023197797418106347,217.0,166.0,193.0,189.0
7692000,0.056,-0.1553347408771515,0.10760051012039185,-0.3781879246234894,0.030487507581710815,0.013498339802026749,0.06561575084924698,0.0035271814558655024,0.0001226209569722414,1.5693552494049072,-0.0003963387571275234,0.00014289091632235795,-0.0002722242206800729,225.0,175.0,201.0,197.0
7740000,0.048,-0.1571948081254959,0.10699628293514252,-0.37375977635383606,0.029628098011016846,0.013007580302655697,0.06667180359363556,0.003474068595096469,0.0001773829135345295,1.5692639350891113,-0.0006472393870353699,-0.0002670007525011897,0.00010681281855795532,234.0,185.0,211.0,207.0
7788000,0.048,-0.15867361426353455,0.10654366761445999,-0.36915889382362366,0.0287884883582592,0.012197975069284439,0.06776924431324005,0.0033963241148740053,0.00023353606229647994,1.5692185163497925,-0.0002628631773404777,0.00024099546135403216,1.3386612408794463e-05,242.0,193.0,218.0,215.0
7836000,0.048,-0.1603609323501587,0.1063041016459465,-0.3664535880088806,0.02787933312356472,0.011914520524442196,0.0682368278503418,0.0033300919458270073,0.00028834163094870746,1.5692203044891357,-0.0007128922152332962,0.00011357570474501699,1.7522324924357235e-05,253.0,205.0,229.0,227.0
7892000,0.056,-0.16300168633460999,0.1062125414609909,-0.36650529503822327,0.026319699361920357,0.012468073517084122,0.06766413897275925,0.0032943058758974075,0.000372922484530136,1.569304347038269,-0.0006326459115371108,0.00018455012468621135,-3.210170689271763e-05,262.0,215.0,238.0,237.0
7940000,0.048,-0.16494639217853546,0.1063045784831047,-0.36642563343048096,0.025505075231194496,0.012786096893250942,0.06726367771625519,0.0032743581105023623,0.0004349989758338779,1.5692373514175415,-0.000480044778669253,0.00018953967082779855,8.969471673481166e-05,272.0,225.0,248.0,247.0
7992000,0.052,-0.16640880703926086,0.10747507214546204,-0.3705190420150757,0.025648750364780426,0.013599873520433903,0.06576637178659439,0.00328588648699224,0.00046040574670769274,1.569085717201233,-0.0005216507706791162,-9.651517029851675e-05,1.0105698493134696e-05,285.0,237.0,260.0,259.0
8040000,0.048,-0.16778765618801117,0.10886147618293762,-0.37472233176231384,0.025941919535398483,0.014661389403045177,0.06427823752164841,0.0033208057284355164,0.00046045047929510474,1.5688793659210205,-0.0005649685044772923,-0.0002243646449642256,2.7245325327385217e-05,297.0,248.0,272.0,271.0
8088000,0.048,-0.16755302250385284,0.11073227226734161,-0.3777310252189636,0.027062643319368362,0.014831475913524628,0.06286852061748505,0.00334429694339633,0.00043495386489667,1.5686047077178955,-0.0005229641101323068,-0.0002282606001244858,0.00020721301552839577,307.0,258.0,282.0,280.0
8136000,0.048,-0.16456012427806854,0.11348294466733932,-0.37931695580482483,0.029209740459918976,0.013911901041865349,0.061521608382463455,0.0033303475938737392,0.0003234574105590582,1.5683451890945435,-0.00042909616604447365,-0.00026833018637262285,2.5674988137325272e-05,322.0,271.0,297.0,292.0
8192000,0.056,-0.1616182178258896,0.11671821773052216,-0.38090330362319946,0.031476765871047974,0.013048007152974606,0.06027737632393837,0.0033135374542325735,0.00017679423035588115,1.5681071281433105,-0.0005731609417125583,-4.908763730782084e-05,-5.7372548326384276e-05,336.0,282.0,310.0,303.0
8240000,0.048,-0.15709103643894196,0.11487843096256256,-0.3812750577926636,0.029350100085139275,0.010415012016892433,0.05940315127372742,0.003224110696464777,0.00018255430040881038,1.5679125785827637,-0.0005795839242637157,0.00018023379379883409,0.00010096636833623052,351.0,297.0,325.0,318.0
8288000,0.048,-0.15263037383556366,0.11256754398345947,-0.38144272565841675,0.026918865740299225,0.00775410421192646,0.05869755521416664,0.003093465231359005,0.00026293069822713733,1.5677658319473267,-0.0005034724599681795,5.114448140375316e-05,-8.302574860863388e-05,362.0,308.0,336.0,329.0
8336000,0.048,-0.14718450605869293,0.10912180691957474,-0.38301172852516174,0.023992015048861504,0.003998108208179474,0.05761559307575226,0.0029303531628102064,0.00037555216113105416,1.5676474571228027,-0.0009052060777321458,0.00012533213885035366,2.915383447543718e-05,378.0,324.0,351.0,345.0
8392000,0.056,-0.13821403682231903,0.1023937538266182,-0.3876499831676483,0.019203774631023407,-0.002744791330769658,0.055322665721178055,0.002563496818765998,0.0006279681692831218,1.5673797130584717,-0.0006758910021744668,8.638922008685768e-05,-0.000129121879581362,390.0,340.0,365.0,359.0
8440000,0.048,-0.1311873197555542,0.09735877066850662,-0.3909733295440674,0.015657279640436172,-0.008010542951524258,0.05362984165549278,0.00226192525587976,0.0008455694769509137,1.5672112703323364,-0.0007681949646212161,0.0001230816269526258,-3.5722856409847736e-05,406.0,357.0,382.0,375.0
8488000,0.048,-0.12777556478977203,0.09471767395734787,-0.39314815402030945,0.014746200293302536,-0.01124874409288168,0.05319277197122574,0.0020062376279383898,0.0009530571987852454,1.5670969486236572,-0.0007053789449855685,2.1936721168458462e-05,8.712750423001125e-05,420.0,369.0,395.0,388.0
8536000,0.048,-0.12504084408283234,0.09284617006778717,-0.3947846293449402,0.014147293753921986,-0.01391193550080061,0.05293729528784752,0.0017974711954593658,0.000990350148640573,1.5670300722122192,-0.0007142438553273678,0.00013735503307543695,-7.303484744625166e-05,439.0,387.0,414.0,405.0
8592000,0.056,-0.12405888736248016,0.0910196527838707,-0.39885762333869934,0.012876322492957115,-0.015463236719369888,0.05133848637342453,0.001643304480239749,0.0010105203837156296,1.5670263767242432,-0.0006952508119866252,5.3887852118350565e-05,7.746758637949824e-05,455.0,402.0,429.0,421.0
8640000,0.048,-0.12535583972930908,0.08967173844575882,-0.4044971466064453,0.011322553269565105,-0.015401800163090229,0.04876242205500603,0.0016216094372794032,0.0010431495029479265,1.5669876337051392,-0.0008620978915132582,-7.166608702391386e-05,-0.00012698039063252509,475.0,420.0,447.0,441.0
8688000,0.048,-0.12633547186851501,0.0885421633720398,-0.40930530428886414,0.009970915503799915,-0.015439813025295734,0.04656917229294777,0.001633799052797258,0.0010655751684680581,1.5669571161270142,-0.000955968804191798,4.7273249947465956e-05,8.182924648281187e-05,489.0,433.0,461.0,454.0
8744000,0.056,-0.12707072496414185,0.08674667775630951,-0.4133782982826233,0.008396261371672153,-0.015769846737384796,0.044994037598371506,0.0016559873474761844,0.0010915856109932065,1.5669078826904297,-0.0005815497133880854,-0.00016236721421591938,-0.00015626610547769815,510.0,452.0,480.0,475.0
8792000,0.048,-0.12743285298347473,0.08538493514060974,-0.41618654131889343,0.007204951718449593,-0.01621985249221325,0.044079478830099106,0.0016753148520365357,0.0011137352557852864,1.5668355226516724,-0.0007415252621285617,-0.00014282528718467802,5.4952430218691006e-05,528.0,470.0,498.0,492.0
8840000,0.048,-0.12811946868896484,0.08504103869199753,-0.41656699776649475,0.006661932449787855,-0.01621953770518303,0.04412413761019707,0.0016902689822018147,0.0011074674548581243,1.5668374300003052,-0.0009157548192888498,-0.00021146389190107584,-2.571115328464657e-05,551.0,490.0,519.0,514.0
8888000,0.048,-0.1294703632593155,0.08646003156900406,-0.41317665576934814,0.007693226914852858,-0.01589534617960453,0.0456378236413002,0.0016964040696620941,0.0009971006074920297,1.5669671297073364,-0.0007507526315748692,-0.00021956094133201987,-5.943410360487178e-05,569.0,504.0,536.0,529.0
8936000,0.048,-0.13051144778728485,0.08792788535356522,-0.41010087728500366,0.008772560395300388,-0.015760615468025208,0.04696747660636902,0.0016970908036455512,0.0008821620722301304,1.566988229751587,-0.0007405371870845556,-0.00011623233876889572,0.0001709919306449592,593.0,525.0,559.0,551.0
8992000,0.056,-0.13353540003299713,0.08869344741106033,-0.4050557315349579,0.008701024577021599,-0.01539327297359705,0.04856381192803383,0.001685755793005228,0.000798286753706634,1.5670456886291504,-0.0008194420952349901,-0.00025052728597074747,-0.00028659115196205676,615.0,544.0,579.0,572.0
9040000,0.048,-0.1358947902917862,0.0892510786652565,-0.40094903111457825,0.008437663316726685,-0.015112105756998062,0.04977630823850632,0.001671210746280849,0.0007527829729951918,1.5671113729476929,-0.0009852286893874407,0.00017034061602316797,0.00015916807751636952,640.0,566.0,603.0,596.0
9088000,0.048,-0.13759110867977142,0.0896129459142685,-0.39586806297302246,0.008271606639027596,-0.01493554562330246,0.051390793174505234,0.0016422461485490203,0.0007181806140579283,1.5671889781951904,-0.0010314524406567216,-0.000106881394458469,-0.00018900303984992206,659.0,582.0,620.0,613.0
9136000,0.048,-0.13841137290000916,0.0897117480635643,-0.3887256681919098,0.008721066638827324,-0.015117170289158821,0.05396580323576927,0.0016132197342813015,0.0006558361928910017,1.5672030448913574,-0.0007727190386503935,-9.605568629922345e-05,0.00020218196732457727,685.0,606.0,646.0,638.0
9192000,0.056,-0.13911336660385132,0.09002502262592316,-0.38137876987457275,0.009126029908657074,-0.015075970441102982,0.05643053725361824,0.0015775414649397135,0.0005951930652372539,1.567175030708313,-0.0006865230388939381,-0.0002738427428994328,-8.639498992124572e-05,709.0,627.0,668.0,660.0
9240000,0.048,-0.13999482989311218,0.08933928608894348,-0.37724217772483826,0.009090966545045376,-0.01509093027561903,0.05813828855752945,0.0015259427018463612,0.0005424724658951163,1.5671404600143433,-0.001084024435840547,-0.00024025165475904942,0.0001720706932246685,736.0,652.0,694.0,686.0
9288000,0.048,-0.14064736664295197,0.08872722089290619,-0.37369391322135925,0.00907166302204132,-0.015405714511871338,0.059611957520246506,0.0014651697129011154,0.0004972558817826211,1.5670464038848877,-0.0008325095404870808,-0.00013465961092151701,-6.479140211013146e-06,757.0,670.0,713.0,705.0
9336000,0.048,-0.14074350893497467,0.08852584660053253,-0.37120744585990906,0.009496917948126793,-0.015194826759397984,0.06068842485547066,0.0014103539288043976,0.0004480321949813515,1.566861629486084,-0.001151577802374959,-0.00029853981686756015,-2.6858171622734517e-05,786.0,695.0,740.0,731.0
9392000,0.056,-0.13989923894405365,0.08878018707036972,-0.3701781630516052,0.007808677386492491,-0.01497624721378088,0.059798672795295715,0.0014075966319069266,0.000513802224304527,1.5665736198425293,-0.0017519006505608559,0.012755217030644417,-0.001932038925588131,808.0,720.0,761.0,757.0
9440000,0.048,-0.1389986276626587,0.08892582356929779,-0.3693917393684387,-0.0008713735733181238,-0.0222942978143692,0.050599582493305206,0.0008521742420271039,0.002215770073235035,1.5658642053604126,-0.029148247092962265,0.05946973338723183,-0.012583249248564243,823.0,761.0,779.0,785.0
9488000,0.048,-0.13931384682655334,0.0879196897149086,-0.37073007225990295,-0.011875178664922714,-0.031765323132276535,0.028504731133580208,-0.0024028923362493515,0.00654321163892746,1.5650607347488403,-0.125043123960495,0.12507928907871246,-0.008963256143033504,819.0,798.0,795.0,803.0
9536000,0.048,-0.13949434459209442,0.08659932017326355,-0.37372398376464844,-0.01675548031926155,-0.03420485556125641,-0.017842261120676994,-0.012194186449050903,0.014299479313194752,1.5644150972366333,-0.2509533762931824,0.16836072504520416,-0.004573919344693422,823.0,829.0,817.0,818.0
9592000,0.056,-0.13604912161827087,0.0864739716053009,-0.38153254985809326,-0.024679120630025864,-0.04407677799463272,-0.0977269858121872,-0.02583167515695095,0.022053899243474007,1.5639315843582153,-0.22521595656871796,0.11095678061246872,-9.367223537992686e-05,829.0,844.0,830.0,828.0
9640000,0.048,-0.1293151080608368,0.08759009838104248,-0.3930375874042511,-0.032782603055238724,-0.05881509184837341,-0.18266066908836365,-0.034535959362983704,0.02567676641047001,1.563781976699829,-0.13854371011257172,0.05271046981215477,0.003882580902427435,837.0,853.0,841.0,835.0
9688000,0.048,-0.122280053794384,0.08789049088954926,-0.40837591886520386,-0.042629338800907135,-0.07649847865104675,-0.2771298289299011,-0.03839020058512688,0.026760146021842957,1.5639060735702515,-0.03325860947370529,0.0019757484551519156,0.0068720439448952675,843.0,856.0,847.0,841.0
9736000,0.048,-0.11736945062875748,0.08647961169481277,-0.4279000461101532,-0.053461115807294846,-0.09402988851070404,-0.3789828419685364,-0.0375010184943676,0.025749510154128075,1.5642246007919312,0.05560874938964844,-0.03423278406262398,0.009286299347877502,850.0,856.0,850.0,847.0
9792000,0.056,-0.1111183762550354,0.0838351845741272,-0.4566148817539215,-0.06604304164648056,-0.11426080018281937,-0.5032105445861816,-0.032289810478687286,0.022890230640769005,1.5648216009140015,0.11472298204898834,-0.05867864936590195,0.01179763488471508,854.0,856.0,852.0,851.0
9840000,0.048,-0.10483428090810776,0.0794130340218544,-0.4866948127746582,-0.07745379209518433,-0.13063430786132812,-0.6131386756896973,-0.026114609092473984,0.019775092601776123,1.5656474828720093,0.1336515098810196,-0.066838838160038,0.012715443037450314,856.0,857.0,853.0,855.0
9888000,0.048,-0.09798190742731094,0.07178745418787003,-0.5221816897392273,-0.08992355316877365,-0.14506077766418457,-0.7255355715751648,-0.01956581510603428,0.016461702063679695,1.5663894414901733,0.13304279744625092,-0.07572128623723984,0.013655063696205616,858.0,856.0,854.0,857.0
9936000,0.048,-0.09057880192995071,0.06404314190149307,-0.5629180669784546,-0.10131899267435074,-0.15695352852344513,-0.8388916850090027,-0.013425695709884167,0.012763319537043571,1.5674326419830322,0.11952110379934311,-0.08078338205814362,0.014020681381225586,859.0,855.0,856.0,858.0
9992000,0.056,-0.07967215031385422,0.04974359646439552,-0.6196346282958984,-0.11656598001718521,-0.16903947293758392,-0.9736140966415405,-0.007349096704274416,0.008416485041379929,1.5685590505599976,0.0977836549282074,-0.08391638100147247,0.013871686533093452,857.0,856.0,855.0,859.0
10040000,0.048,-0.06996066123247147,0.03719041123986244,-0.6741192936897278,-0.12810303270816803,-0.17682284116744995,-1.0887819528579712,-0.003103027818724513,0.0044403038918972015,1.5694257020950317,0.08202584832906723,-0.0922551080584526,0.013177032582461834,857.0,855.0,857.0,858.0
10088000,0.048,-0.059524938464164734,0.025258846580982208,-0.7354887127876282,-0.13753744959831238,-0.18245573341846466,-1.2042304277420044,0.0005221492028795183,0.00028293009381741285,1.5703364610671997,0.07103952020406723,-0.090464286506176,0.012071295641362667,857.0,854.0,857.0,857.0
10136000,0.048,-0.04788408800959587,0.014201277866959572,-0.8051381707191467,-0.14419564604759216,-0.18645095825195312,-1.3209556341171265,0.003570892382413149,-0.0036715823225677013,1.5714952945709229,0.059944260865449905,-0.08113664388656616,0.011094179004430771,855.0,853.0,857.0,856.0
10192000,0.056,-0.034859128296375275,0.00197606161236763,-0.8921991586685181,-0.14907358586788177,-0.1891063004732132,-1.454838514328003,0.006670882925391197,-0.007545837666839361,1.5727225542068481,0.05406155064702034,-0.06359242647886276,0.00960087776184082,854.0,852.0,856.0,856.0
10240000,0.048,-0.024505218490958214,-0.0066902488470077515,-0.974772036075592,-0.14989493787288666,-0.1906466782093048,-1.570210337638855,0.009031374007463455,-0.010258663445711136,1.574180006980896,0.049607403576374054,-0.05215064808726311,0.007617993280291557,854.0,850.0,856.0,856.0
10288000,0.048,-0.014610877260565758,-0.014595155604183674,-1.0622849464416504,-0.14874503016471863,-0.19070902466773987,-1.6844885349273682,0.01113610528409481,-0.012370304204523563,1.5758463144302368,0.04328194260597229,-0.036916643381118774,0.005238574929535389,852.0,850.0,856.0,856.0
10336000,0.048,-0.004483784083276987,-0.02115180902183056,-1.1534013748168945,-0.14476364850997925,-0.19005528092384338,-1.7970010042190552,0.012943458743393421,-0.01388623844832182,1.5773171186447144,0.03791142627596855,-0.024352876469492912,0.0028227607253938913,851.0,848.0,856.0,855.0
10392000,0.056,0.007884806953370571,-0.02630533091723919,-1.263814926147461,-0.13619044423103333,-0.18836051225662231,-1.9265556335449219,0.014788497239351273,-0.01504538394510746,1.5794016122817993,0.03584815934300423,-0.006738531868904829,-0.0007781962631270289,850.0,848.0,856.0,856.0
10440000,0.048,0.017811106517910957,-0.030099032446742058,-1.3636529445648193,-0.12734997272491455,-0.18576964735984802,-2.036862373352051,0.016277126967906952,-0.015205166302621365,1.5807225704193115,0.03175261244177818,0.0062546986155211926,-0.004472833592444658,850.0,848.0,856.0,856.0
10496000,0.056,0.02706526219844818,-0.03301694616675377,-1.4870468378067017,-0.11675053834915161,-0.17879655957221985,-2.1647961139678955,0.01789010502398014,-0.014802135527133942,1.5815500020980835,0.025554833933711052,0.014705250039696693,-0.008430784568190575,839.0,837.0,844.0,846.0
10544000,0.048,0.034017376601696014,-0.035054828971624374,-1.5978174209594727,-0.10764838755130768,-0.17131227254867554,-2.2621121406555176,0.018903905525803566,-0.01422065682709217,1.581661581993103,0.013524195179343224,0.015099680051207542,-0.011598057113587856,822.0,821.0,827.0,828.0
10592000,0.048,0.03975653648376465,-0.0368957445025444,-1.7129733562469482,-0.09937734156847,-0.16240355372428894,-2.339184045791626,0.019399287179112434,-0.01360150147229433,1.5813111066818237,0.003694139653816819,0.015091074630618095,-0.014177567325532436,809.0,809.0,813.0,815.0
10640000,0.048,0.04439414292573929,-0.03863094374537468,-1.8314672708511353,-0.09198663383722305,-0.15251903235912323,-2.3985044956207275,0.01952310837805271,-0.012993778102099895,1.5805026292800903,-0.003626115620136261,0.010807373560965061,-0.01666887104511261,799.0,799.0,802.0,803.0
10696000,0.056,0.04927307739853859,-0.04036181792616844,-1.9720948934555054,-0.08403860777616501,-0.14078062772750854,-2.4508650302886963,0.01934697851538658,-0.0125314611941576,1.578873872756958,-0.007688062731176615,0.005596065428107977,-0.017990445718169212,793.0,793.0,795.0,795.0
10752000,0.056,0.05432334914803505,-0.046351008117198944,-2.1138863563537598,-0.0797765925526619,-0.1299280822277069,-2.4898548126220703,0.019046448171138763,-0.012144762091338634,1.5769113302230835,-0.00834750011563301,0.000954470771830529,-0.018474867567420006,788.0,789.0,788.0,790.0
10800000,0.048,0.058127596974372864,-0.050959184765815735,-2.2365856170654297,-0.07700753957033157,-0.12079474329948425,-2.516411781311035,0.01876545138657093,-0.012236791662871838,1.5751934051513672,-0.007424940355122089,-0.009815309196710587,-0.017865000292658806,786.0,787.0,784.0,785.0
10856000,0.056,0.062061358243227005,-0.05491656810045242,-2.380965232849121,-0.07550892233848572,-0.1094953864812851,-2.542156934738159,0.018528297543525696,-0.012882055714726448,1.5924233198165894,-0.005368346348404884,-0.016879849135875702,-0.016398558393120766,785.0,784.0,782.0,781.0
10912000,0.056,0.06539154052734375,-0.05787275359034538,-2.5264089107513428,-0.0723971426486969,-0.09900277853012085,-2.564542770385742,0.018307005986571312,-0.013621600344777107,1.5908170938491821,-0.007506529800593853,-0.015661178156733513,-0.016716867685317993,775.0,773.0,787.0,788.0
10960000,0.048,0.06728579849004745,-0.06061874330043793,-2.6533257961273193,-0.06908415257930756,-0.08940961956977844,-2.581535816192627,0.017838910222053528,-0.014157218858599663,1.587648868560791,-0.013811413198709488,-0.011121615767478943,-0.02125387080013752,775.0,775.0,783.0,783.0
11008000,0.048,0.06787038594484329,-0.06397736072540283,-2.783449411392212,-0.06530874222517014,-0.07927605509757996,-2.596815586090088,0.017218777909874916,-0.014485687017440796,1.58352530002594,-0.015421310439705849,-0.007668447680771351,-0.02509547770023346,776.0,776.0,780.0,780.0
11056000,0.048,0.06817880272865295,-0.06686363369226456,-2.9133684635162354,-0.060950759798288345,-0.0694534033536911,-2.6104142665863037,0.016519486904144287,-0.014689210802316666,1.5793336629867554,-0.016835207119584084,-0.004555804654955864,-0.0261000357568264,778.0,777.0,777.0,777.0
11112000,0.056,0.06520067900419235,-0.06877879053354263,-3.064356803894043,-0.054936278611421585,-0.05724633112549782,-2.6247942447662354,0.015718046575784683,-0.014772778376936913,1.5756919384002686,-0.015768181532621384,-0.001528791501186788,-0.02556738071143627,779.0,777.0,775.0,775.0
11160000,0.048,0.06170397624373436,-0.06977453827857971,-3.1936514377593994,-0.049232207238674164,-0.04665334150195122,-2.63608717918396,0.014943372458219528,-0.014668668620288372,1.5737773180007935,-0.020528264343738556,0.0030628331005573273,-0.023580821231007576,779.0,778.0,774.0,774.0
11208000,0.048,0.058232929557561874,-0.07009060680866241,-3.323378324508667,-0.04270054027438164,-0.03618815913796425,-2.646658182144165,0.013922146521508694,-0.014395011588931084,1.5727401971817017,-0.025530368089675903,0.006463909056037664,-0.021270453929901123,778.0,778.0,773.0,774.0
11256000,0.048,0.05451537296175957,-0.06824953854084015,-3.4548308849334717,-0.03398123010993004,-0.02603066712617874,-2.657165050506592,0.012573055922985077,-0.01408314611762762,1.5707247257232666,-0.03063049167394638,0.012780607677996159,-0.018647391349077225,778.0,778.0,773.0,772.0
11312000,0.056,0.05037689954042435,-0.06585603207349777,-3.6079983711242676,-0.022995971143245697,-0.015141548588871956,-2.6684813499450684,0.010901770554482937,-0.013159793801605701,1.5688419342041016,-0.028959596529603004,0.023653090000152588,-0.015245483256876469,778.0,778.0,772.0,771.0
11360000,0.048,0.047740109264850616,-0.066014863550663,-3.743000030517578,-0.015392398461699486,-0.007250011898577213,-2.6783714294433594,0.009606861509382725,-0.011927901767194271,1.5680569410324097,-0.026607610285282135,0.02783113718032837,-0.012173053808510303,777.0,779.0,771.0,772.0
11408000,0.048,0.04526617005467415,-0.06627421826124191,-3.8781540393829346,-0.009005923755466938,-0.0004743022145703435,-2.6878204345703125,0.008432534523308277,-0.010799993760883808,1.5677556991577148,-0.023683706298470497,0.01869012787938118,-0.00899355299770832,776.0,778.0,771.0,771.0
11456000,0.048,0.04248875379562378,-0.06550568342208862,-4.012854099273682,-0.0034948268439620733,0.0052907150238752365,-2.696251630783081,0.007432575337588787,-0.010128060355782509,1.5675727128982544,-0.01951128989458084,0.010404298081994057,-0.006243101321160793,776.0,776.0,772.0,771.0
11512000,0.056,0.03758661821484566,-0.06052575632929802,-4.16996431350708,0.004788448102772236,0.01180986687541008,-2.706247329711914,0.006560600362718105,-0.009661153890192509,1.5671195983886719,-0.016164656728506088,0.014405963011085987,-0.0035782598424702883,776.0,775.0,772.0,771.0
11560000,0.048,0.0336010716855526,-0.05631513521075249,-4.304254055023193,0.012335880659520626,0.016703633591532707,-2.714111566543579,0.005805610679090023,-0.008844316005706787,1.5666115283966064,-0.01770583540201187,0.023194221779704094,-0.0012707264395430684,776.0,776.0,771.0,771.0
11608000,0.048,0.02426672913134098,-0.050438292324543,-4.435595989227295,0.02006140537559986,0.02463321015238762,-2.720611810684204,0.005060560069978237,-0.007706823758780956,1.5666204690933228,-0.020340077579021454,0.027358805760741234,0.0006271782913245261,776.0,774.0,771.0,772.0
11656000,0.048,0.01459453720599413,-0.04453163221478462,-4.566593647003174,0.027300352230668068,0.03292182832956314,-2.7267465591430664,0.00402562553063035,-0.006430486682802439,1.5668448209762573,-0.03166469931602478,0.03060237132012844,0.002514040330424905,775.0,775.0,771.0,773.0
11712000,0.056,0.0034153982996940613,-0.03781362622976303,-4.719992637634277,0.034589312970638275,0.043062735348939896,-2.7339441776275635,0.0020445650443434715,-0.004849075339734554,1.5670769214630127,-0.04414939507842064,0.030049869790673256,0.003956770524382591,775.0,775.0,772.0,773.0
11760000,0.048,-0.006953743286430836,-0.03200956806540489,-4.852234363555908,0.03962086886167526,0.051421623677015305,-2.739933490753174,-4.708745836978778e-05,-0.003500348189845681,1.567567229270935,-0.04990211874246597,0.02722393535077572,0.004908227827399969,774.0,775.0,773.0,773.0
11808000,0.048,-0.016356211155653,-0.026651643216609955,-4.984567165374756,0.043487172573804855,0.058560531586408615,-2.7459254264831543,-0.002304651541635394,-0.002272853860631585,1.5682224035263062,-0.04958193376660347,0.024772563949227333,0.00566461868584156,773.0,775.0,773.0,773.0
11856000,0.048,-0.023912129923701286,-0.022069837898015976,-5.116726398468018,0.04649876803159714,0.06357113271951675,-2.750950813293457,-0.004473765846341848,-0.0012192445574328303,1.5688652992248535,-0.045077718794345856,0.019762884825468063,0.00597676495090127,773.0,775.0,774.0,773.0
11912000,0.056,-0.031256187707185745,-0.017273616045713425,-5.270877361297607,0.04877971485257149,0.06633349508047104,-2.7567951679229736,-0.006555495783686638,-0.0002616193378344178,1.5693984031677246,-0.03328794613480568,0.014966321177780628,0.005954843945801258,773.0,775.0,775.0,773.0
11960000,0.048,-0.03676121309399605,-0.013131285086274147,-5.401313304901123,0.0498201809823513,0.06620100140571594,-2.7614986896514893,-0.007799504324793816,0.00039250950794667006,1.5697038173675537,-0.02114991843700409,0.012821543030440807,0.005691205617040396,773.0,775.0,775.0,774.0
12008000,0.048,-0.04145784303545952,-0.008705169893801212,-5.528682708740234,0.05042177066206932,0.06396501511335373,-2.7650249004364014,-0.008546159602701664,0.0009643788216635585,1.5697404146194458,-0.010884315706789494,0.011719643138349056,0.005352828651666641,774.0,775.0,775.0,775.0
12056000,0.048,-0.045548904687166214,-0.004607122857123613,-5.656872272491455,0.05042944848537445,0.06029611453413963,-2.7695889472961426,-0.00894070789217949,0.0014802947407588363,1.56956946849823,-0.0065876333974301815,0.010006834752857685,0.00509147671982646,774.0,775.0,775.0,775.0
12112000,0.056,-0.04608616977930069,0.0023966049775481224,-5.804767608642578,0.05135497450828552,0.0534614697098732,-2.7740464210510254,-0.009163563139736652,0.0019771421793848276,1.5692139863967896,0.0012018680572509766,0.009480933658778667,0.005019786302000284,775.0,775.0,776.0,774.0
12160000,0.048,-0.045238230377435684,0.008671949617564678,-5.9317169189453125,0.05238921567797661,0.046046555042266846,-2.778296947479248,-0.008912060409784317,0.0024992693215608597,1.5688450336456299,0.011824152432382107,0.015248345211148262,0.005125957541167736,775.0,776.0,776.0,775.0
12208000,0.048,-0.044790904968976974,0.014468447305262089,-6.059905052185059,0.05360793322324753,0.03772599622607231,-2.7835590839385986,-0.008154279552400112,0.003279306460171938,1.5685675144195557,0.02116539515554905,0.019073043018579483,0.004915449768304825,775.0,776.0,775.0,775.0
12256000,0.048,-0.046436283737421036,0.02018457092344761,-6.190168380737305,0.055046889930963516,0.029833296313881874,-2.790283441543579,-0.007048092316836119,0.004117383621633053,1.5684622526168823,0.025345398113131523,0.02074403688311577,0.005080615635961294,775.0,776.0,775.0,775.0
12312000,0.056,-0.04776901751756668,0.02622140944004059,-6.343071460723877,0.055858246982097626,0.021024568006396294,-2.7980411052703857,-0.005707505624741316,0.005145710427314043,1.5687381029129028,0.024164054542779922,0.01924220658838749,0.005486644804477692,775.0,775.0,774.0,775.0
12360000,0.048,-0.0482296422123909,0.03151519224047661,-6.471892833709717,0.05548026040196419,0.013892039656639099,-2.8026185035705566,-0.004737049341201782,0.0059201824478805065,1.569077968597412,0.019101116806268692,0.016872672364115715,0.005752549506723881,774.0,775.0,774.0,775.0
12408000,0.048,-0.04832243174314499,0.0363655649125576,-6.601131439208984,0.05423294007778168,0.007840635254979134,-2.8072152137756348,-0.003985229413956404,0.006585780996829271,1.5694764852523804,0.015643509104847908,0.01373839657753706,0.005701921880245209,774.0,775.0,775.0,776.0
12456000,0.048,-0.04791698977351189,0.041111335158348083,-6.730412006378174,0.05219217762351036,0.0023964575957506895,-2.811992645263672,-0.0033285298850387335,0.007048712577670813,1.5699259042739868,0.014453710056841373,0.00912872701883316,0.005481257103383541,775.0,774.0,775.0,775.0
12512000,0.056,-0.046028777956962585,0.048408687114715576,-6.877690315246582,0.0502973347902298,-0.003298165975138545,-2.816082239151001,-0.0026656435802578926,0.007386824581772089,1.5702766180038452,0.011388376355171204,0.00983126275241375,0.004626805894076824,774.0,775.0,775.0,775.0
12560000,0.048,-0.04432808980345726,0.05385742709040642,-7.005457878112793,0.04841446503996849,-0.007740907836705446,-2.82049822807312,-0.002125863218680024,0.007802798878401518,1.5704383850097656,0.01217144075781107,0.010608552023768425,0.004179689101874828,773.0,773.0,774.0,774.0
12608000,0.048,-0.04320667311549187,0.05709857866168022,-7.1402411460876465,0.04604911804199219,-0.011220947839319706,-2.823732376098633,-0.0015052095986902714,0.008336642757058144,1.5705227851867676,0.013218862004578114,0.013200842775404453,0.0034997034817934036,745.0,746.0,745.0,747.0
12656000,0.048,-0.04216957837343216,0.05961185693740845,-7.275700092315674,0.04281070455908775,-0.014327669516205788,-2.8004350662231445,-0.0009109832462854683,0.008747260086238384,1.5707485675811768,0.010546333156526089,0.006627879571169615,0.0033892211504280567,712.0,712.0,713.0,714.0
12712000,0.056,-0.041805196553468704,0.062402285635471344,-7.431074142456055,0.037638869136571884,-0.016922658309340477,-2.732830047607422,-0.0003763865679502487,0.008874027989804745,1.5710276365280151,0.007619691547006369,0.0006642984226346016,0.002571898279711604,692.0,692.0,693.0,694.0
12760000,0.048,-0.043130118399858475,0.06501296907663345,-7.560452938079834,0.032591309398412704,-0.018245775252580643,-2.648759365081787,-3.2665408070897684e-05,0.008810638450086117,1.5713602304458618,0.004986007697880268,-0.001662869704887271,0.0020846764091402292,677.0,677.0,678.0,679.0
12808000,0.048,-0.04410824179649353,0.06712030619382858,-7.685351848602295,0.027340279892086983,-0.01914943754673004,-2.5490448474884033,0.00016822469478938729,0.008662553504109383,1.5718460083007812,0.0014792142901569605,-0.003452918492257595,0.0016407951479777694,671.0,670.0,672.0,672.0
12864000,0.056,-0.04446171969175339,0.06890901178121567,-7.8209547996521,0.021013254299759865,-0.02023182064294815,-2.419191360473633,0.00015010967035777867,0.00843651033937931,1.572414517402649,-0.002540196757763624,-0.0042733666487038136,0.0007623111596331,666.0,667.0,668.0,669.0
12912000,0.048,-0.04433339089155197,0.06996297091245651,-7.930554389953613,0.015574824996292591,-0.021239958703517914,-2.302769184112549,2.9703844120376743e-05,0.008217716589570045,1.57288658618927,-0.0025542001239955425,-0.005548497661948204,3.0268602131400257e-05,666.0,667.0,669.0,669.0
12960000,0.048,-0.04507945477962494,0.07092106342315674,-8.034881591796875,0.010229549370706081,-0.021984271705150604,-2.185472011566162,-1.9042847270611674e-05,0.007929752580821514,1.5732905864715576,5.675054853782058e-05,-0.006742373574525118,-0.0009197965846396983,668.0,668.0,671.0,671.0
13008000,0.048,-0.047575920820236206,0.07200601696968079,-8.133681297302246,0.005174578633159399,-0.022048182785511017,-2.0692293643951416,5.297753887134604e-05,0.007615026086568832,1.5738379955291748,0.00015567889204248786,-0.007072774693369865,-0.0019273866200819612,672.0,671.0,674.0,674.0
13056000,0.048,-0.04952743276953697,0.0726776197552681,-8.227395057678223,0.00015857015387155116,-0.022098960354924202,-1.9565742015838623,1.0003351235354785e-05,0.007258572615683079,1.5742793083190918,-0.003056206041947007,-0.0073420023545622826,-0.0029741832986474037,675.0,675.0,677.0,678.0
13112000,0.056,-0.05430663004517555,0.07176490128040314,-8.331000328063965,-0.006460120901465416,-0.02066776342689991,-1.8303556442260742,-0.0001418116153217852,0.006875887047499418,1.5743021965026855,-0.006089965812861919,-0.008380967192351818,-0.003997464198619127,679.0,679.0,680.0,682.0
13160000,0.048,-0.058677781373262405,0.07030680775642395,-8.414725303649902,-0.01237537246197462,-0.01908988505601883,-1.7270489931106567,-0.0004658106481656432,0.006395189557224512,1.5738656520843506,-0.011702250689268112,-0.012754973024129868,-0.005009735468775034,684.0,684.0,685.0,686.0
13208000,0.048,-0.06241317465901375,0.06842412799596786,-8.492694854736328,-0.018215540796518326,-0.01781447045505047,-1.627936840057373,-0.0010520857758820057,0.00572287617251277,1.573374629020691,-0.016519321128726006,-0.01593487337231636,-0.0053495741449296474,688.0,688.0,689.0,689.0
13256000,0.048,-0.06574329733848572,0.06540314108133316,-8.56125259399414,-0.024608884006738663,-0.01733320951461792,-1.532538652420044,-0.0017850927542895079,0.00498619582504034,1.572698712348938,-0.017883891239762306,-0.018733171746134758,-0.0059607676230371,695.0,696.0,696.0,696.0
13312000,0.056,-0.0688086673617363,0.06177087128162384,-8.637042045593262,-0.031429942697286606,-0.017777273431420326,-1.4299955368041992,-0.002629623981192708,0.0038341472391039133,1.571858525276184,-0.015616064891219139,-0.023751553148031235,-0.005698082037270069,701.0,701.0,701.0,701.0
13360000,0.048,-0.0657723918557167,0.05653858929872513,-8.695600509643555,-0.03724948316812515,-0.021210994571447372,-1.3475956916809082,-0.0033132631797343493,0.002786067547276616,1.5714008808135986,-0.011614992283284664,-0.024498026818037033,-0.0056289806962013245,707.0,709.0,708.0,707.0
13408000,0.048,-0.06180697679519653,0.05113803967833519,-8.751018524169922,-0.04247867688536644,-0.025730431079864502,-1.2718932628631592,-0.0035934383049607277,0.0016170893795788288,1.571076512336731,0.001547088846564293,-0.027708424255251884,-0.005383214447647333,711.0,713.0,712.0,711.0
13456000,0.048,-0.057648539543151855,0.04622732847929001,-8.803555488586426,-0.04670904949307442,-0.03100009076297283,-1.2022151947021484,-0.0032218624837696552,0.00030856087687425315,1.570836067199707,0.01519550010561943,-0.029312707483768463,-0.004880508873611689,717.0,718.0,717.0,716.0
13512000,0.056,-0.051441460847854614,0.04208673536777496,-8.859381675720215,-0.0496051199734211,-0.037961117923259735,-1.1265466213226318,-0.002116827992722392,-0.0012251948937773705,1.5709874629974365,0.027369454503059387,-0.026208410039544106,-0.004246653523296118,722.0,722.0,722.0,720.0
13564000,0.052,-0.04635247215628624,0.03863862529397011,-8.90534782409668,-0.05111651495099068,-0.04338334873318672,-1.0677005052566528,-0.0007005232619121671,-0.0023050098679959774,1.5711842775344849,0.034794025123119354,-0.02067364566028118,-0.004015475511550903,726.0,726.0,726.0,725.0
13616000,0.052,-0.04051738604903221,0.034883517771959305,-8.952067375183105,-0.05208796635270119,-0.04825079068541527,-1.00303316116333,0.0012452314840629697,-0.003297877497971058,1.571155309677124,0.03658253327012062,-0.015420268289744854,-0.004286235198378563,732.0,731.0,731.0,731.0
13672000,0.056,-0.03499680384993553,0.03129646182060242,-8.99665641784668,-0.05216168239712715,-0.05163814127445221,-0.9452085494995117,0.003135052276775241,-0.004087070468813181,1.5709431171417236,0.032708801329135895,-0.012539458461105824,-0.003384686540812254,735.0,733.0,733.0,734.0
13688000,0.016,-0.03347684070467949,0.03030950017273426,-9.009172439575195,-0.052033763378858566,-0.0523369200527668,-0.9298205971717834,0.0036279424093663692,-0.004273989237844944,1.5708279609680176,0.0307100098580122,-0.010948076844215393,-0.0035641745198518038,735.0,734.0,734.0,735.0
13696000,0.008,-0.032727282494306564,0.029820211231708527,-9.015385627746582,-0.05196346715092659,-0.05265109986066818,-0.9222955703735352,0.0038620890118181705,-0.004360763821750879,1.5707669258117676,0.02954847551882267,-0.010582380928099155,-0.0034804069437086582,736.0,735.0,735.0,735.0
13712000,0.016,-0.03210099786520004,0.0296487957239151,-9.027833938598633,-0.05132599174976349,-0.0527394600212574,-0.9072750210762024,0.0043113213032484055,-0.004533298779278994,1.5706524848937988,0.027742354199290276,-0.010024243034422398,-0.003266833256930113,737.0,736.0,736.0,736.0
13720000,0.008,-0.03178504481911659,0.029555585235357285,-9.034031867980957,-0.05102354660630226,-0.0527648963034153,-0.8999027609825134,0.004529102705419064,-0.004617894534021616,1.5706006288528442,0.026933075860142708,-0.009121142327785492,-0.0033368365839123726,738.0,736.0,736.0,736.0
13728000,0.008,-0.03146756812930107,0.02945760264992714,-9.04019546508789,-0.05071340501308441,-0.052752602845430374,-0.8926684260368347,0.004740884527564049,-0.0046961042098701,1.5705448389053345,0.02616056054830551,-0.008329530246555805,-0.0034881816245615482,738.0,736.0,736.0,736.0
13736000,0.008,-0.031150486320257187,0.02935139462351799,-9.046326637268066,-0.05040282383561134,-0.05271000787615776,-0.8855017423629761,0.004944995045661926,-0.004769552499055862,1.570489525794983,0.02499787136912346,-0.007879790849983692,-0.0031347423791885376,739.0,737.0,737.0,737.0
13752000,0.016,-0.0305133368819952,0.029126698151230812,-9.058489799499512,-0.04973280802369118,-0.05258556455373764,-0.8713635206222534,0.005329514387995005,-0.004894469864666462,1.5704015493392944,0.022858884185552597,-0.0060415323823690414,-0.0032441928051412106,286.0,150.0,606.0,1000.0
13760000,0.008,-0.030193708837032318,0.029008621349930763,-9.064519882202148,-0.04945771396160126,-0.052392423152923584,-0.8633385896682739,0.0054228235967457294,-0.005000549368560314,1.570252776145935,0.0005883502308279276,-0.018859434872865677,-0.0226565133780241,290.0,150.0,639.0,979.0
13768000,0.008,-0.029874438419938087,0.02888605371117592,-9.070508003234863,-0.049840472638607025,-0.05123130604624748,-0.8489774465560913,0.004624553490430117,-0.005716915708035231,1.5698766708374023,-0.14329096674919128,-0.11883518844842911,-0.05157475918531418,293.0,150.0,663.0,952.0
13776000,0.008,-0.02955690585076809,0.028758009895682335,-9.07638168334961,-0.05125823989510536,-0.04860085994005203,-0.8298715949058533,0.002153080189600587,-0.007638468407094479,1.5692524909973145,-0.369911253452301,-0.28306543827056885,-0.0826721042394638,310.0,150.0,747.0,880.0
13792000,0.016,-0.02892512083053589,0.028486857190728188,-9.087663650512695,-0.056718435138463974,-0.03963393345475197,-0.7821201086044312,-0.008702386170625687,-0.01571565866470337,1.5672804117202759,-0.8590089678764343,-0.6245309114456177,-0.1463739573955536,317.0,150.0,791.0,850.0
13800000,0.008,-0.028595024719834328,0.028346266597509384,-9.093032836914062,-0.0599789135158062,-0.034182336181402206,-0.7557933330535889,-0.01677011325955391,-0.021480847150087357,1.5659681558609009,-1.059461236000061,-0.7445710301399231,-0.17883525788784027,316.0,150.0,850.0,842.0
13808000,0.008,-0.028258418664336205,0.028206853196024895,-9.0982084274292,-0.06303685158491135,-0.028735309839248657,-0.7289937734603882,-0.026160964742302895,-0.027955999597907066,1.5644652843475342,-1.2146263122558594,-0.8201470971107483,-0.2114580124616623,313.0,150.0,854.0,841.0
13816000,0.008,-0.027911009266972542,0.02807200886309147,-9.103189468383789,-0.06557697802782059,-0.02367546036839485,-0.7022792100906372,-0.03652189299464226,-0.03480274975299835,1.5627752542495728,-1.3281078338623047,-0.8534071445465088,-0.24442635476589203,298.0,150.0,889.0,873.0
13832000,0.016,-0.02678104117512703,0.028235262259840965,-9.112470626831055,-0.06807247549295425,-0.01599866896867752,-0.6505536437034607,-0.059119418263435364,-0.04853836074471474,1.5588009357452393,-1.4690134525299072,-0.8280544281005859,-0.3130294978618622,294.0,150.0,904.0,886.0
13840000,0.008,-0.025997260585427284,0.028533000499010086,-9.116762161254883,-0.06788744777441025,-0.01363404467701912,-0.6261977553367615,-0.07101760059595108,-0.05513668805360794,1.5565322637557983,-1.5115635395050049,-0.7931774258613586,-0.3489832282066345,283.0,150.0,939.0,911.0
13848000,0.008,-0.025190304964780807,0.028842231258749962,-9.12088394165039,-0.06682547926902771,-0.01239324826747179,-0.6035723686218262,-0.08313192427158356,-0.061449792236089706,1.5540186166763306,-1.5384564399719238,-0.7488685846328735,-0.3866741955280304,280.0,150.0,941.0,912.0
13856000,0.008,-0.02435322105884552,0.029166750609874725,-9.124848365783691,-0.0648953765630722,-0.012308402918279171,-0.5825464725494385,-0.09537005424499512,-0.06741688400506973,1.551241159439087,-1.5561293363571167,-0.6961334943771362,-0.4249894320964813,265.0,150.0,975.0,933.0
13872000,0.016,-0.022564740851521492,0.02987254410982132,-9.132367134094238,-0.058548662811517715,-0.015579553321003914,-0.5454078912734985,-0.12004002183675766,-0.07818824797868729,1.544803500175476,-1.577051043510437,-0.5800997614860535,-0.5057958960533142,263.0,150.0,989.0,940.0
13880000,0.008,-0.021598221734166145,0.03026064857840538,-9.135942459106445,-0.054230861365795135,-0.018975142389535904,-0.5294720530509949,-0.13234509527683258,-0.08297766000032425,1.5411067008972168,-1.5739657878875732,-0.5177636742591858,-0.5481289029121399,242.0,150.0,1000.0,950.0
13888000,0.008,-0.02057126723229885,0.03067762963473797,-9.13940143585205,-0.04916765168309212,-0.023562896996736526,-0.5152527689933777,-0.14451219141483307,-0.08731342107057571,1.5370516777038574,-1.560137152671814,-0.44673648476600647,-0.5912217497825623,235.0,150.0,1000.0,954.0
13896000,0.008,-0.019475683569908142,0.031126365065574646,-9.142751693725586,-0.04338956996798515,-0.029329901561141014,-0.5024967789649963,-0.15648922324180603,-0.09115172177553177,1.5326107740402222,-1.542138934135437,-0.37044596672058105,-0.6349284052848816,204.0,150.0,1000.0,964.0
13912000,0.016,-0.0170479454100132,0.03212699666619301,-9.149153709411621,-0.02998991310596466,-0.044207554310560226,-0.4797981083393097,-0.17980104684829712,-0.09747340530157089,1.5225187540054321,-1.4996243715286255,-0.2325541228055954,-0.7242295145988464,196.0,150.0,1000.0,964.0
13920000,0.008,-0.015701405704021454,0.03268150985240936,-9.15223217010498,-0.02246565744280815,-0.053267400711774826,-0.46940916776657104,-0.19109293818473816,-0.10005439072847366,1.5168527364730835,-1.4754586219787598,-0.1696755439043045,-0.7691665887832642,170.0,150.0,1000.0,966.0
13928000,0.008,-0.014257433824241161,0.033273257315158844,-9.15521240234375,-0.01442502811551094,-0.06334368139505386,-0.4593715965747833,-0.20214270055294037,-0.10228941589593887,1.5107630491256714,-1.4525446891784668,-0.10931119322776794,-0.8142375349998474,164.0,150.0,1000.0,967.0
13936000,0.008,-0.012709860689938068,0.03390255197882652,-9.158093452453613,-0.0059387157671153545,-0.0743928849697113,-0.4496646523475647,-0.2129518836736679,-0.1042340099811554,1.504250168800354,-1.4290766716003418,-0.05641398951411247,-0.8596852421760559,163.0,150.0,1000.0,940.0
13952000,0.016,-0.01033780723810196,0.03537403792142868,-9.162674903869629,0.012242513708770275,-0.09859781712293625,-0.43028146028518677,-0.23373453319072723,-0.10739632695913315,1.4899754524230957,-1.3691537380218506,0.04420425370335579,-0.9497068524360657,162.0,150.0,1000.0,929.0
13960000,0.008,-0.009492634795606136,0.03622565045952797,-9.164388656616211,0.02193048968911171,-0.11173029243946075,-0.42019394040107727,-0.24358732998371124,-0.10862313210964203,1.4820325374603271,-1.3325732946395874,0.10080502927303314,-0.9939953684806824,161.0,150.0,1000.0,916.0
13968000,0.008,-0.008506091311573982,0.0371088907122612,-9.166037559509277,0.03204334154725075,-0.1257903128862381,-0.4099076986312866,-0.2530480623245239,-0.109556645154953,1.4736435413360596,-1.2883388996124268,0.16020658612251282,-1.0376797914505005,167.0,161.0,1000.0,920.0
13976000,0.008,-0.0073743341490626335,0.038022734224796295,-9.167585372924805,0.0426044836640358,-0.14076490700244904,-0.39936187863349915,-0.2620309591293335,-0.11015702039003372,1.4647945165634155,-1.2328643798828125,0.22613179683685303,-1.0806598663330078,190.0,209.0,1000.0,942.0
13992000,0.016,-0.004660444334149361,0.03993608430027962,-9.170356750488281,0.06496239453554153,-0.17329023778438568,-0.37816694378852844,-0.2783418297767639,-0.11016809195280075,1.4456610679626465,-1.105762004852295,0.37404170632362366,-1.1643292903900146,193.0,219.0,1000.0,944.0
14000000,0.008,-0.003070297883823514,0.04093216359615326,-9.171577453613281,0.0766795203089714,-0.19070379436016083,-0.3682442605495453,-0.28564581274986267,-0.10959673672914505,1.435373067855835,-1.0407500267028809,0.4419650733470917,-1.2057464122772217,210.0,258.0,1000.0,957.0
14008000,0.008,-0.0013183775590732694,0.041951749473810196,-9.172690391540527,0.08868860453367233,-0.20879043638706207,-0.3591642379760742,-0.29238876700401306,-0.10871342569589615,1.4246220588684082,-0.9760190844535828,0.5022021532058716,-1.2467896938323975,215.0,268.0,1000.0,961.0
14016000,0.008,0.0006023535970598459,0.0429912693798542,-9.173700332641602,0.1009833961725235,-0.22746309638023376,-0.3509623408317566,-0.2985905110836029,-0.10757051408290863,1.4134206771850586,-0.9139187335968018,0.5557385087013245,-1.2875596284866333,229.0,300.0,1000.0,965.0
14032000,0.016,0.004962284583598375,0.045123979449272156,-9.17548656463623,0.12626425921916962,-0.26624107360839844,-0.33687257766723633,-0.3094949722290039,-0.10475575923919678,1.3897452354431152,-0.7973026633262634,0.6366592645645142,-1.369399070739746,231.0,306.0,1000.0,962.0
14040000,0.008,0.007409689016640186,0.046211253851652145,-9.176239013671875,0.13922616839408875,-0.2862504720687866,-0.3307943642139435,-0.3141992688179016,-0.10320046544075012,1.3773053884506226,-0.7367448806762695,0.6670898199081421,-1.4099897146224976,248.0,336.0,1000.0,965.0
14048000,0.008,0.010040231049060822,0.04730818420648575,-9.176902770996094,0.15241646766662598,-0.30661123991012573,-0.32520875334739685,-0.31838998198509216,-0.10158040374517441,1.3644797801971436,-0.6748544573783875,0.6951891183853149,-1.450117588043213,256.0,351.0,1000.0,968.0
14056000,0.008,0.012857030145823956,0.04841144010424614,-9.177477836608887,0.16581182181835175,-0.32724568247795105,-0.32011425495147705,-0.32206788659095764,-0.09992728382349014,1.3512852191925049,-0.6125560402870178,0.7175890207290649,-1.489532232284546,272.0,372.0,1000.0,974.0
14072000,0.016,0.01906081661581993,0.05062258243560791,-9.178413391113281,0.19326363503932953,-0.36916184425354004,-0.3114180266857147,-0.3278392553329468,-0.09669358283281326,1.3238641023635864,-0.48153722286224365,0.7442526817321777,-1.5683594942092896,275.0,377.0,1000.0,972.0
14080000,0.008,0.022733882069587708,0.0528147928416729,-9.178470611572266,0.20812363922595978,-0.39023908972740173,-0.307696133852005,-0.32991066575050354,-0.09516876190900803,1.3096647262573242,-0.4148310720920563,0.751450777053833,-1.6070327758789062,296.0,401.0,1000.0,976.0
14088000,0.008,0.026595555245876312,0.05497811734676361,-9.178461074829102,0.22304095327854156,-0.41141748428344727,-0.3043888807296753,-0.3314477205276489,-0.0937286838889122,1.295486569404602,-0.34831732511520386,0.752755343914032,-1.6451210975646973,302.0,408.0,1000.0,978.0
14096000,0.008,0.03064894862473011,0.057111289352178574,-9.178388595581055,0.23818139731884003,-0.4326058328151703,-0.3014938533306122,-0.332437664270401,-0.0924300029873848,1.2810280323028564,-0.2806948721408844,0.748511016368866,-1.6832168102264404,323.0,426.0,989.0,969.0
