timestamp,dt,x,y,z,vx,vy,vz,roll,pitch,yaw,roll_rate,pitch_rate,yaw_rate,motor1,motor2,motor3,motor4
474568000,0.0,17.76082420349121,0.1835251748561859,-0.8220187425613403,-0.00994518306106329,-0.01616949774324894,-0.11850104480981827,0.002156853210180998,0.011698181740939617,0.07596226036548615,-0.00032706110505387187,3.230257425457239e-05,-0.00031356350518763065,0.0,0.0,0.0,0.0
474616000,0.048,17.76117706298828,0.1830320656299591,-0.824678897857666,-0.010263527743518353,-0.016659533604979515,-0.11818287521600723,0.0021565358620136976,0.01170617900788784,0.0759594514966011,-0.0002609462244436145,0.0002527140313759446,-0.00010863412171602249,0.0,0.0,0.0,0.0
474672000,0.056,17.761768341064453,0.18255573511123657,-0.8284758925437927,-0.010671102441847324,-0.017055997624993324,-0.11802802979946136,0.002148061990737915,0.011708223260939121,0.07592146843671799,-0.000395321985706687,0.00013982865493744612,-0.00036562688183039427,0.0,0.0,0.0,0.0
474720000,0.048,17.762319564819336,0.18263469636440277,-0.8308273553848267,-0.010917994193732738,-0.016964321956038475,-0.11778435856103897,0.0021546478383243084,0.011706960387527943,0.07582558691501617,-0.00019744050223380327,9.454065002501011e-05,-0.0002852841280400753,0.0,0.0,0.0,0.0
474768000,0.048,17.76317596435547,0.18349730968475342,-0.8313516974449158,-0.010772841051220894,-0.01639465242624283,-0.11729010939598083,0.0021701687946915627,0.011691278778016567,0.07572000473737717,5.2620540373027325e-05,-5.4199714213609695e-05,-0.00045208330266177654,0.0,0.0,0.0,0.0
474816000,0.048,17.763784408569336,0.1841513216495514,-0.8326178789138794,-0.010833288542926311,-0.01592557318508625,-0.1169683188199997,0.0021854222286492586,0.011680938303470612,0.07561078667640686,-0.0002711741835810244,8.918391540646553e-05,-0.00027551420498639345,0.0,0.0,0.0,0.0
474872000,0.056,17.766878128051758,0.18445295095443726,-0.8325783014297485,-0.010175556875765324,-0.015537118539214134,-0.11619286984205246,0.002193986903876066,0.011653570458292961,0.07552112638950348,-0.00021583266789093614,0.00021157553419470787,-0.00012500712182372808,0.0,0.0,0.0,0.0
474920000,0.048,17.769882202148438,0.1845415234565735,-0.8326743841171265,-0.009404651820659637,-0.015291965566575527,-0.11560637503862381,0.0021973929833620787,0.011629000306129456,0.07544847577810287,-0.00025735277449712157,-0.0001725729089230299,-0.00036337238270789385,0.0,0.0,0.0,0.0
474968000,0.048,17.77316665649414,0.18455146253108978,-0.8337499499320984,-0.008598781190812588,-0.015107711777091026,-0.11529737710952759,0.002198591595515609,0.011600743047893047,0.0753818228840828,-0.0002986752660945058,4.867638926953077e-05,-0.00036358635406941175,0.0,0.0,0.0,0.0
475016000,0.048,17.77735137939453,0.1845085471868515,-0.8358216881752014,-0.007612138520926237,-0.014941935427486897,-0.11511020362377167,0.0021975829731673002,0.011566624976694584,0.07531812787055969,-0.00020252139074727893,1.7605256289243698e-05,-0.00039335479959845543,0.0,0.0,0.0,0.0
475072000,0.056,17.781330108642578,0.1843007504940033,-0.8388702273368835,-0.006748379208147526,-0.014790273271501064,-0.11506901681423187,0.002195242792367935,0.011533426120877266,0.07528577744960785,0.00010425440268591046,4.897464532405138e-05,-0.0006425005849450827,0.0,0.0,0.0,0.0
475120000,0.048,17.785865783691406,0.18127916753292084,-0.8369273543357849,-0.0058477167040109634,-0.015985475853085518,-0.11442665755748749,0.0021691536530852318,0.011513657867908478,0.07525227218866348,-0.000486204051412642,0.00020504661370068789,-0.00039063242729753256,0.0,0.0,0.0,0.0
475168000,0.048,17.78997230529785,0.17802149057388306,-0.8351776599884033,-0.0051701064221560955,-0.017207661643624306,-0.11391405016183853,0.0021346919238567352,0.01150219514966011,0.07520950585603714,1.1683732736855745e-05,0.00014179502613842487,-0.0003030718071386218,0.0,0.0,0.0,0.0
475216000,0.048,17.79351043701172,0.1755085587501526,-0.8338059186935425,-0.004746080841869116,-0.018165526911616325,-0.11343488097190857,0.002099493984133005,0.011496059596538544,0.07519327104091644,-4.9425638280808926e-05,0.00023936363868415356,-0.0004569356678985059,0.0,0.0,0.0,0.0
475272000,0.056,17.79718017578125,0.1754852831363678,-0.82976895570755,-0.0039710416458547115,-0.018189692869782448,-0.11227655410766602,0.0020758688915520906,0.011479740031063557,0.07521650940179825,-0.00023929780581966043,-1.519918441772461e-05,-0.00017044669948518276,0.0,0.0,0.0,0.0
475320000,0.048,17.799890518188477,0.17526669800281525,-0.8277215361595154,-0.0034242835827171803,-0.01822168007493019,-0.11165738850831985,0.002053498988971114,0.0114659508690238,0.07527095824480057,-0.0002734009176492691,8.851755410432816e-06,-0.00021847570315003395,0.0,0.0,0.0,0.0
475368000,0.048,17.801645278930664,0.17346279323101044,-0.8252389430999756,-0.0031456288415938616,-0.018968533724546432,-0.11115836352109909,0.0020224752370268106,0.011452658101916313,0.0753343254327774,-0.0002386143314652145,0.00014186545740813017,-0.00034168013371527195,0.0,0.0,0.0,0.0
475416000,0.048,17.803064346313477,0.17146211862564087,-0.8236547112464905,-0.002919927705079317,-0.019654199481010437,-0.11073743551969528,0.0019902880303561687,0.011441183276474476,0.07540421187877655,-0.00029702618485316634,0.0001661826390773058,-8.930242620408535e-05,0.0,0.0,0.0,0.0
475472000,0.056,17.803720474243164,0.16964003443717957,-0.8232761025428772,-0.0029766112565994263,-0.020160850137472153,-0.11053482443094254,0.0019613364711403847,0.011426999233663082,0.07547202706336975,-0.0002777739427983761,-5.431054159998894e-05,1.3794866390526295e-05,0.0,0.0,0.0,0.0
475520000,0.048,17.802715301513672,0.16891252994537354,-0.8241521120071411,-0.003646484576165676,-0.019957078620791435,-0.11057014763355255,0.0019469313556328416,0.011433679610490799,0.07551903277635574,-0.000203552539460361,-5.6042103096842766e-05,-0.0001213710056617856,0.0,0.0,0.0,0.0
475568000,0.048,17.80169677734375,0.168243408203125,-0.8257144093513489,-0.004362848587334156,-0.019761251285672188,-0.11075898259878159,0.0019410056993365288,0.011445373296737671,0.07550571858882904,-0.0002779996721073985,0.0001165509456768632,-0.00016885856166481972,150.0,152.0,150.0,152.0
475616000,0.048,17.80112075805664,0.16892792284488678,-0.8225069642066956,-0.004779839422553778,-0.018730878829956055,-0.11020034551620483,0.001960140885785222,0.011452583596110344,0.07547517120838165,-0.00031392445089295506,0.00018539628945291042,3.3760443329811096e-06,150.0,152.0,150.0,152.0
475672000,0.056,17.800552368164062,0.16977795958518982,-0.8192992806434631,-0.0050971535965800285,-0.01767575740814209,-0.10970629006624222,0.0019850709941238165,0.011457274667918682,0.07544870674610138,-0.00012479897122830153,8.62486194819212e-06,-0.000435251509770751,150.0,152.0,150.0,152.0
475720000,0.048,17.8008975982666,0.17040807008743286,-0.8179998993873596,-0.005093300715088844,-0.01687566190958023,-0.10953045636415482,0.0020109303295612335,0.01146046444773674,0.0754314512014389,-0.0003457314451225102,-0.00013864715583622456,-0.0003143394133076072,150.0,152.0,150.0,152.0
475768000,0.048,17.802793502807617,0.1710662841796875,-0.8179129362106323,-0.004723844584077597,-0.016045888885855675,-0.10947524011135101,0.0020387107506394386,0.011450269259512424,0.07543538510799408,-0.00010601023677736521,-2.7543865144252777e-05,-0.00029280618764460087,150.0,152.0,150.0,152.0
475816000,0.048,17.804378509521484,0.1715484857559204,-0.8186603784561157,-0.0043589090928435326,-0.01545778475701809,-0.10961126536130905,0.0020561981946229935,0.01144094206392765,0.07546232640743256,-0.00032112078042700887,-4.48708888143301e-05,-0.00029555067885667086,150.0,152.0,150.0,152.0
475872000,0.056,17.807634353637695,0.17084424197673798,-0.8213616013526917,-0.0031290696933865547,-0.016196804121136665,-0.11045157164335251,0.0020437866915017366,0.011413412168622017,0.07553555071353912,-8.174404501914978e-05,-3.2237847335636616e-05,-0.0001944142859429121,150.0,152.0,150.0,152.0
475920000,0.048,17.810514450073242,0.16986246407032013,-0.8245224356651306,-0.002042134292423725,-0.01716604083776474,-0.11147230863571167,0.0020071337930858135,0.011376481503248215,0.07558131217956543,-0.0005141937872394919,7.43999844416976e-05,-0.0001709504285827279,150.0,152.0,150.0,152.0
475968000,0.048,17.811607360839844,0.17039626836776733,-0.8279097080230713,-0.0012814595829695463,-0.01723540388047695,-0.11246229708194733,0.001980929635465145,0.011346475221216679,0.07561997324228287,-0.00011769885895773768,8.852663449943066e-05,-0.0001114612678065896,150.0,152.0,150.0,152.0
476016000,0.048,17.80996322631836,0.1736297607421875,-0.8313408493995667,-0.0012175641022622585,-0.015805773437023163,-0.11346423625946045,0.001991656143218279,0.011333218775689602,0.07565268874168396,-0.00021555495914071798,-4.90840757265687e-05,-0.00012569117825478315,150.0,152.0,150.0,152.0
476072000,0.056,17.808284759521484,0.17679134011268616,-0.8358340263366699,-0.0011470633326098323,-0.014331500045955181,-0.11476428806781769,0.0020076949149370193,0.011320487596094608,0.0756528377532959,3.764050779864192e-05,-0.0001220983685925603,-0.000213504652492702,150.0,152.0,150.0,152.0
476120000,0.048,17.809091567993164,0.1788076013326645,-0.8372684717178345,7.288741471711546e-05,-0.01392310205847025,-0.11537729203701019,0.0020173443481326103,0.011295183561742306,0.0756164938211441,-0.0002714607981033623,-0.0002003515837714076,4.470255225896835e-05,150.0,152.0,150.0,152.0
476168000,0.048,17.81023406982422,0.18044519424438477,-0.8388733863830566,0.0014477483928203583,-0.013673735782504082,-0.11596151441335678,0.0020254708360880613,0.011265663430094719,0.07553639262914658,-0.00013378122821450233,0.00017928658053278923,-0.0002876261714845896,150.0,152.0,150.0,152.0
476216000,0.048,17.811063766479492,0.18132203817367554,-0.840309739112854,0.002639781218022108,-0.013882613740861416,-0.11644811928272247,0.0020226582419127226,0.011235206387937069,0.0754833072423935,-0.00037094997242093086,9.750912431627512e-05,-0.0002432628534734249,150.0,152.0,150.0,152.0
476272000,0.056,17.810537338256836,0.17998787760734558,-0.8384950160980225,0.0033723325468599796,-0.015347354114055634,-0.11602571606636047,0.0019871420226991177,0.011205077171325684,0.0754164606332779,-0.00024805922294035554,1.043651718646288e-05,-0.000208370853215456,150.0,152.0,150.0,152.0
476320000,0.048,17.810239791870117,0.17882028222084045,-0.8381087779998779,0.003923159558326006,-0.016509313136339188,-0.11587804555892944,0.001958240056410432,0.01118376199156046,0.0753663182258606,-0.00019336078548803926,0.0002730295527726412,2.4338834919035435e-05,150.0,152.0,150.0,152.0
476368000,0.048,17.8081111907959,0.1778544932603836,-0.8399888277053833,0.003563768696039915,-0.01740952394902706,-0.11566326767206192,0.0019279724219813943,0.011184290051460266,0.07531585544347763,-0.00026845542015507817,-2.1375133655965328e-05,-6.259651854634285e-07,150.0,152.0,150.0,152.0
476416000,0.048,17.80596160888672,0.17682619392871857,-0.8426418900489807,0.0031286540906876326,-0.018290311098098755,-0.11565960198640823,0.0018977574072778225,0.01119237206876278,0.07529669255018234,-0.00015777756925672293,0.00026092783082276583,-0.00016959640197455883,150.0,152.0,150.0,152.0
476472000,0.056,17.803499221801758,0.17505066096782684,-0.8459795713424683,0.0025715655647218227,-0.019562114030122757,-0.11592627316713333,0.0018635408487170935,0.011214110068976879,0.07528183609247208,-0.00017076596850529313,8.218165021389723e-05,-2.9158894903957844e-05,150.0,152.0,150.0,152.0
476520000,0.048,17.801023483276367,0.1724987030029297,-0.8486835956573486,0.0017624559113755822,-0.021106624975800514,-0.11639263480901718,0.0018284363904967904,0.011249296367168427,0.07524841278791428,-0.00011594529496505857,0.0003291994798928499,-0.00015436578541994095,150.0,152.0,150.0,152.0
476568000,0.048,17.798828125,0.16997206211090088,-0.8518417477607727,0.0011005174601450562,-0.022611254826188087,-0.11701210588216782,0.0017930363537743688,0.011280977167189121,0.07526198029518127,-0.00025649176677688956,0.00013416539877653122,-0.0002707578241825104,150.0,152.0,150.0,152.0
476616000,0.048,17.799156188964844,0.16772732138633728,-0.8533610701560974,0.0018000222044065595,-0.024127477779984474,-0.11708768457174301,0.00175228260923177,0.011289652436971664,0.07529022544622421,-6.33263261988759e-05,-0.0001286637270823121,-0.0002849793527275324,152.0,150.0,152.0,150.0
476672000,0.056,17.79995346069336,0.1651960164308548,-0.8555063009262085,0.0026512490585446358,-0.02580598182976246,-0.11722312122583389,0.0017038634978234768,0.011276098899543285,0.0753297284245491,-0.00041864183731377125,-5.0761387683451176e-05,2.4024629965424538e-05,158.0,150.0,158.0,150.0
476720000,0.048,17.800365447998047,0.1625245362520218,-0.8567280173301697,0.003305514110252261,-0.027505014091730118,-0.11724133044481277,0.0016656297957524657,0.011271104216575623,0.07536324858665466,-0.00023868499556556344,0.0001403243513777852,-0.00023238267749547958,166.0,150.0,166.0,150.0
476768000,0.048,17.800718307495117,0.15889523923397064,-0.8563398122787476,0.004088510759174824,-0.029812369495630264,-0.11692216247320175,0.0016110967844724655,0.011248890310525894,0.07538305968046188,-0.00020768539980053902,-0.00016784819308668375,-0.00010058633051812649,184.0,150.0,184.0,150.0
476816000,0.048,17.8011417388916,0.15541251003742218,-0.8568419814109802,0.004848243668675423,-0.031935036182403564,-0.1168067455291748,0.0015606008237227798,0.011224217712879181,0.07541194558143616,-0.0002135409158654511,0.00015915685798972845,-0.00017443450633436441,196.0,150.0,196.0,150.0
476872000,0.056,17.800151824951172,0.15074285864830017,-0.8587367534637451,0.004865143448114395,-0.034688446670770645,-0.11670011281967163,0.001498706522397697,0.011211537756025791,0.07545807957649231,-0.0002935903030447662,0.0002130287466570735,-0.00010361999738961458,217.0,150.0,217.0,150.0
476920000,0.048,17.798938751220703,0.14675875008106232,-0.8610833883285522,0.0045362915843725204,-0.0368969663977623,-0.1168333888053894,0.0014447205467149615,0.011213310062885284,0.07545877248048782,-5.333864828571677e-05,-0.00016703491564840078,-0.00018854648806154728,231.0,150.0,231.0,150.0
476968000,0.048,17.797517776489258,0.1441846638917923,-0.8635605573654175,0.004062191117554903,-0.038313981145620346,-0.11711888760328293,0.001406018971465528,0.011225028894841671,0.07542887330055237,-0.0001543841790407896,-3.5542878322303295e-05,-8.258828893303871e-05,251.0,150.0,251.0,150.0
477016000,0.048,17.795740127563477,0.14387166500091553,-0.8658804893493652,0.0034768173936754465,-0.038598377257585526,-0.11758115887641907,0.001397052314132452,0.011252635158598423,0.07538668066263199,-0.00027938984567299485,1.5190918929874897e-05,-5.163450259715319e-05,266.0,150.0,266.0,150.0
477072000,0.056,17.793943405151367,0.14320644736289978,-0.8692567944526672,0.002827343065291643,-0.039003197103738785,-0.1182045042514801,0.0014012998435646296,0.011279262602329254,0.07531493157148361,-0.0001621592091396451,-0.00014754105359315872,-0.0002845440758392215,287.0,150.0,287.0,150.0
477120000,0.048,17.791500091552734,0.14195820689201355,-0.8700961470603943,0.001740169944241643,-0.03964102640748024,-0.11800868064165115,0.0014068635646253824,0.011314336210489273,0.07524305582046509,-0.00012099597370252013,0.00019705831073224545,-0.00016061915084719658,307.0,150.0,307.0,150.0
477168000,0.048,17.78916358947754,0.1404799371957779,-0.8711830973625183,0.0007378231966868043,-0.04040451720356941,-0.1178230568766594,0.0014094669604673982,0.011356265284121037,0.07517243921756744,-0.00048827636055648327,0.00013689370825886726,-0.00028056325390934944,332.0,150.0,332.0,150.0
477216000,0.048,17.786653518676758,0.13904795050621033,-0.8726025819778442,-0.00012605710071511567,-0.04120520502328873,-0.11768673360347748,0.0014127575559541583,0.011390223167836666,0.07513247430324554,-0.0002073131618089974,0.00015998573508113623,-0.00035198312252759933,350.0,150.0,350.0,150.0
477272000,0.056,17.781280517578125,0.13815365731716156,-0.8732744455337524,-0.0019125681137666106,-0.041913311928510666,-0.11730086803436279,0.001416524755768478,0.011438029818236828,0.07515331357717514,-0.0004184238496236503,1.338636502623558e-05,-5.804956890642643e-05,366.0,161.0,377.0,150.0
477320000,0.048,17.777280807495117,0.13708098232746124,-0.8746317028999329,-0.0031418122816830873,-0.04272986575961113,-0.11714190989732742,0.0014102255227044225,0.011477562598884106,0.0752250999212265,-0.00033748772693797946,0.00020048615988343954,-2.725247759371996e-05,366.0,181.0,397.0,150.0
477368000,0.048,17.772626876831055,0.13844355940818787,-0.8754457235336304,-0.004589975345879793,-0.04268129542469978,-0.11671437323093414,0.0014160055434331298,0.011521376669406891,0.07536941766738892,4.727044142782688e-06,0.00027482572477310896,-0.00023754371795803308,378.0,214.0,418.0,150.0
477416000,0.048,17.768373489379883,0.13970598578453064,-0.8767302632331848,-0.005812967661768198,-0.042716220021247864,-0.11649326980113983,0.0014168909983709455,0.011552391573786736,0.07557453215122223,-0.0003608756233006716,-4.803738556802273e-05,-8.677726145833731e-05,398.0,235.0,419.0,150.0
477464000,0.048,17.76487922668457,0.14069795608520508,-0.8778308629989624,-0.006561677902936935,-0.04287605360150337,-0.11634279787540436,0.0014183464227244258,0.011571594513952732,0.07576139271259308,-0.00034450890962034464,0.0001369150122627616,-0.00024550268426537514,422.0,254.0,429.0,150.0
477512000,0.048,17.762746810913086,0.14211417734622955,-0.8758082985877991,-0.00663156621158123,-0.04282727465033531,-0.1155117079615593,0.001431701355613768,0.01156589761376381,0.07590610533952713,-0.00017706328071653843,-6.755231879651546e-05,-0.00028154917526990175,450.0,270.0,450.0,150.0
477560000,0.048,17.761188507080078,0.14297422766685486,-0.874894917011261,-0.006299120839685202,-0.043080925941467285,-0.1150025725364685,0.001440554391592741,0.01154259778559208,0.07605751603841782,-3.0280672945082188e-05,-4.468869883567095e-05,-0.00019794853869825602,466.0,279.0,463.0,150.0
477608000,0.048,17.76021957397461,0.14468173682689667,-0.8759834170341492,-0.005759309511631727,-0.04300756752490997,-0.1149691790342331,0.0014452504692599177,0.011500131338834763,0.07618631422519684,-0.00033580500166863203,-0.00043693656334653497,-0.00028650497552007437,500.0,301.0,484.0,150.0
477656000,0.048,17.759614944458008,0.14646746218204498,-0.8782771825790405,-0.005036450456827879,-0.04283199459314346,-0.11528153717517853,0.001459947437979281,0.011452092789113522,0.07628384232521057,-0.000189276528544724,-0.00021643436048179865,-4.651595372706652e-05,521.0,314.0,500.0,150.0
477712000,0.056,17.759130477905273,0.1478060930967331,-0.8816022872924805,-0.0042214952409267426,-0.04259621724486351,-0.11580201238393784,0.0014719469472765923,0.011407377198338509,0.07632266730070114,-0.00031540513737127185,-0.00010963680688291788,-0.0002226217184215784,553.0,334.0,520.0,150.0
477760000,0.048,17.758089065551758,0.14779996871948242,-0.8845769166946411,-0.003996564541012049,-0.04243958741426468,-0.11652413755655289,0.0014853427419438958,0.01138346642255783,0.07633505761623383,-0.0003494877018965781,-0.00013417820446193218,-0.00020661228336393833,576.0,349.0,535.0,150.0
477808000,0.048,17.75723648071289,0.14753055572509766,-0.8880866765975952,-0.0037818567361682653,-0.042507536709308624,-0.11747122555971146,0.0015012166695669293,0.011363568715751171,0.07632879912853241,-0.00010064075468108058,0.00015345809515565634,-0.0004312145756557584,614.0,376.0,557.0,150.0
477856000,0.048,17.75562286376953,0.1476435512304306,-0.8882123827934265,-0.0037814006209373474,-0.04222898557782173,-0.1175815612077713,0.0015097757568582892,0.011356632225215435,0.07630360126495361,-6.168399704620242e-05,-0.00012139731552451849,-7.696426473557949e-05,638.0,391.0,573.0,150.0
477912000,0.056,17.75281524658203,0.1481139212846756,-0.8854328989982605,-0.0042558033019304276,-0.04170979931950569,-0.11709045618772507,0.001533383154310286,0.011369246058166027,0.07625620812177658,-0.0002331507857888937,0.00026191258803009987,-0.00011309550609439611,674.0,416.0,593.0,150.0
477960000,0.048,17.75121307373047,0.14825786650180817,-0.8836454749107361,-0.004348923917859793,-0.04127352312207222,-0.11690954118967056,0.0015452731167897582,0.011380069889128208,0.07620664685964584,-0.00013479084009304643,8.560274727642536e-05,-0.0002483862917870283,700.0,435.0,608.0,150.0
478008000,0.048,17.75216293334961,0.1484755575656891,-0.8793355822563171,-0.003340291092172265,-0.04054487124085426,-0.11594883352518082,0.0015696851769462228,0.01136581227183342,0.07617250829935074,-0.0002682740450836718,-0.0001596921356394887,-0.00020072690676897764,744.0,466.0,631.0,150.0
478056000,0.048,17.7530460357666,0.14846785366535187,-0.8765650391578674,-0.0023036932107061148,-0.03995772823691368,-0.11544275283813477,0.0015916218981146812,0.011352102272212505,0.07613860070705414,-0.0003152293502353132,-0.00014669087249785662,-0.0001284752506762743,773.0,487.0,644.0,150.0
478112000,0.056,17.755477905273438,0.14796018600463867,-0.8732292652130127,-0.002223159186542034,-0.04005137085914612,-0.11534351855516434,0.0015983306802809238,0.011391948908567429,0.07611460983753204,-0.0003628889098763466,0.005658070556819439,-1.497624907642603e-05,812.0,518.0,664.0,150.0
478160000,0.048,17.757905960083008,0.14714579284191132,-0.8708888292312622,-0.012128166854381561,-0.040549810975790024,-0.1208886057138443,0.0015917179407551885,0.01276568602770567,0.07611539214849472,-0.0003939744783565402,0.05551663786172867,-0.0001770268427208066,840.0,549.0,668.0,150.0
478208000,0.048,17.759281158447266,0.14607664942741394,-0.8701678514480591,-0.030904483050107956,-0.041135795414447784,-0.13221806287765503,0.001596628106199205,0.018441850319504738,0.07616065442562103,-0.0003080409951508045,0.14551812410354614,1.498835626989603e-05,883.0,612.0,659.0,150.0
478256000,0.048,17.762800216674805,0.14644655585289001,-0.8734750151634216,-0.05789384990930557,-0.040722206234931946,-0.14928025007247925,0.0015949105145409703,0.02876065857708454,0.07620330899953842,-0.0003964618081226945,0.278899222612381,-0.0002571908989921212,908.0,667.0,636.0,150.0
478312000,0.056,17.763919830322266,0.14628803730010986,-0.8791282176971436,-0.09646546840667725,-0.04043631628155708,-0.17381209135055542,0.0015986980870366096,0.049916431307792664,0.07628044486045837,-0.0004180161631666124,0.46970805525779724,-0.0001756784040480852,944.0,756.0,590.0,150.0
478360000,0.048,17.761882781982422,0.14684544503688812,-0.8838643431663513,-0.13525652885437012,-0.03966769203543663,-0.19790871441364288,0.0016147522255778313,0.07732798159122467,0.07637272030115128,-0.00030707893893122673,0.6607191562652588,-0.00025280797854065895,977.0,846.0,536.0,150.0
478408000,0.048,17.756925582885742,0.14744722843170166,-0.8893570899963379,-0.17869272828102112,-0.03890214115381241,-0.22499315440654755,0.0016395339043810964,0.11454486101865768,0.07645586878061295,-0.00022252334747463465,0.8762324452400208,-0.00017937750089913607,1000.0,981.0,425.0,150.0
478456000,0.048,17.748943328857422,0.14752373099327087,-0.89622563123703,-0.2189924418926239,-0.03236100822687149,-0.25435468554496765,0.0016808477230370045,0.1627352088689804,0.07761897146701813,-0.010370951145887375,1.1191719770431519,0.0660473182797432,994.0,1000.0,273.0,150.0
478512000,0.056,17.73650360107422,0.14698342978954315,-0.9067116975784302,-0.2561189830303192,-0.028724702075123787,-0.2789919078350067,0.0019204042619094253,0.23336073756217957,0.08448907732963562,-0.0030738762579858303,1.3418784141540527,0.1394842118024826,837.0,1000.0,235.0,191.0
478560000,0.048,17.723329544067383,0.14578649401664734,-0.915547788143158,-0.2764112055301666,-0.037824179977178574,-0.2882485091686249,0.0027273676823824644,0.29890185594558716,0.0864531472325325,0.08199196308851242,1.3185452222824097,-0.059408534318208694,794.0,1000.0,250.0,288.0
478608000,0.048,17.71139907836914,0.1447274386882782,-0.9244071841239929,-0.299428790807724,-0.0492059588432312,-0.3020498752593994,0.0045157140120863914,0.36142536997795105,0.07272400707006454,0.20501229166984558,1.2403016090393066,-0.45802533626556396,770.0,1000.0,272.0,438.0
478656000,0.048,17.697843551635742,0.14343658089637756,-0.9325070977210999,-0.3511436879634857,-0.06492408365011215,-0.3163924813270569,0.005397653207182884,0.4141364097595215,0.03752259165048599,0.3610207438468933,0.9651859998703003,-0.8791859149932861,788.0,1000.0,288.0,503.0
478712000,0.056,17.67634391784668,0.14091812074184418,-0.940335750579834,-0.4474733769893646,-0.10231548547744751,-0.3515092432498932,0.0005242948536761105,0.4537400007247925,-0.03061777912080288,0.4653450548648834,0.507436215877533,-1.2754465341567993,805.0,1000.0,321.0,596.0
478760000,0.048,17.653406143188477,0.13771478831768036,-0.9470736980438232,-0.5291284918785095,-0.10725539177656174,-0.4213094115257263,-0.000574445934034884,0.47554636001586914,-0.09394996613264084,0.5713180303573608,0.2641665041446686,-1.1426024436950684,874.0,1000.0,338.0,604.0
478808000,0.048,17.62347412109375,0.1357470005750656,-0.9538378715515137,-0.6449288129806519,-0.15405918657779694,-0.48520487546920776,-0.0012953549157828093,0.48081862926483154,-0.15043890476226807,0.47911337018013,-0.02032918483018875,-0.9422507882118225,912.0,1000.0,390.0,635.0
478856000,0.048,17.58258819580078,0.13465823233127594,-0.9593914747238159,-0.7971332669258118,-0.2178720086812973,-0.5482779145240784,-0.0017614500829949975,0.46906059980392456,-0.19271887838840485,0.309059202671051,-0.4552261233329773,-0.6235310435295105,986.0,1000.0,445.0,594.0
478912000,0.056,17.52010726928711,0.13525386154651642,-0.9645538330078125,-1.021843433380127,-0.2546732425689697,-0.6111122369766235,-0.0028136251494288445,0.43229010701179504,-0.2165134996175766,0.03213288262486458,-0.7619457840919495,-0.19814832508563995,1000.0,980.0,554.0,619.0
478960000,0.048,17.454776763916016,0.137388676404953,-0.9696585536003113,-1.2237187623977661,-0.2581242620944977,-0.6674421429634094,-0.010649432428181171,0.3917355537414551,-0.22065629065036774,-0.24848037958145142,-0.8677250742912292,-0.002232072874903679,1000.0,970.0,644.0,636.0
479008000,0.048,17.37270164489746,0.14124171435832977,-0.976081907749176,-1.4157018661499023,-0.2500006854534149,-0.7367126941680908,-0.024124540388584137,0.3534773886203766,-0.2154817134141922,-0.34802159667015076,-0.7400904893875122,0.16185221076011658,1000.0,985.0,691.0,661.0
479056000,0.048,17.282794952392578,0.14610791206359863,-0.9858006238937378,-1.5895965099334717,-0.23426873981952667,-0.8237823247909546,-0.03548741340637207,0.322316974401474,-0.20201241970062256,-0.2969750165939331,-0.588555097579956,0.31433725357055664,1000.0,991.0,712.0,677.0
479112000,0.056,17.16419792175293,0.15478678047657013,-0.9987804293632507,-1.7756704092025757,-0.20543377101421356,-0.9453896880149841,-0.040777482092380524,0.29558396339416504,-0.1774458885192871,-0.16766570508480072,-0.4245331287384033,0.47979846596717834,1000.0,991.0,733.0,703.0
479160000,0.048,17.052684783935547,0.16357289254665375,-1.0136109590530396,-1.9222720861434937,-0.16932767629623413,-1.063846468925476,-0.037980467081069946,0.27966514229774475,-0.14968907833099365,-0.0651315376162529,-0.30809450149536133,0.61187744140625,1000.0,990.0,739.0,715.0
479208000,0.048,16.93506622314453,0.17195013165473938,-1.0347185134887695,-2.0570356845855713,-0.11899226158857346,-1.1922324895858765,-0.02984989620745182,0.2687343955039978,-0.11586828529834747,0.003583114594221115,-0.21594999730587006,0.7380416393280029,1000.0,989.0,735.0,719.0
479256000,0.048,16.808242797851562,0.1814594715833664,-1.0617595911026,-2.183695077896118,-0.050008341670036316,-1.3261467218399048,-0.018107563257217407,0.26153576374053955,-0.07615985721349716,0.036728035658597946,-0.14427965879440308,0.8610251545906067,1000.0,988.0,732.0,721.0
479312000,0.056,16.65345001220703,0.19206677377223969,-1.101278305053711,-2.318148612976074,0.058800969272851944,-1.4871838092803955,-0.0019864358473569155,0.25608593225479126,-0.022391794249415398,0.03596022352576256,-0.08771789819002151,1.0013505220413208,1000.0,988.0,730.0,722.0
479360000,0.048,16.511518478393555,0.20165829360485077,-1.1423487663269043,-2.4231655597686768,0.18031282722949982,-1.629199743270874,0.012574414722621441,0.25269246101379395,0.029799792915582657,0.014648801647126675,-0.05713861435651779,1.1190956830978394,1000.0,988.0,730.0,723.0
479408000,0.048,16.3629093170166,0.2114587277173996,-1.1897485256195068,-2.5160465240478516,0.3284858465194702,-1.7737065553665161,0.027153529226779938,0.24957461655139923,0.08751647174358368,-0.013276390731334686,-0.03932536765933037,1.2350605726242065,1000.0,989.0,731.0,723.0
479456000,0.048,16.20926284790039,0.2210681140422821,-1.2432252168655396,-2.5934438705444336,0.5036215782165527,-1.9190491437911987,0.0415339358150959,0.2460601031780243,0.15090656280517578,-0.04189296066761017,-0.027711423113942146,1.3486441373825073,1000.0,990.0,732.0,723.0
479512000,0.056,16.019367218017578,0.23164665699005127,-1.3083504438400269,-2.6622729301452637,0.7417479753494263,-2.0892555713653564,0.05814942717552185,0.24099715054035187,0.2318425327539444,-0.06630285829305649,-0.02156856469810009,1.478699803352356,1000.0,991.0,733.0,722.0
479560000,0.048,15.851531028747559,0.2405683994293213,-1.3714689016342163,-2.6959712505340576,0.9726958274841309,-2.234543561935425,0.0724974274635315,0.23536178469657898,0.30706512928009033,-0.07980630546808243,-0.019673950970172882,1.5879521369934082,1000.0,992.0,735.0,722.0
479608000,0.048,15.680093765258789,0.25016194581985474,-1.440467119216919,-2.7012135982513428,1.2267425060272217,-2.378722667694092,0.08711446821689606,0.22830279171466827,0.3871597945690155,-0.08679404109716415,-0.018001599237322807,1.6955931186676025,1000.0,993.0,736.0,721.0
479656000,0.048,15.504219055175781,0.25998347997665405,-1.5158113241195679,-2.674147844314575,1.499176263809204,-2.5218660831451416,0.1020464152097702,0.21966856718063354,0.47194167971611023,-0.08753720670938492,-0.009787708520889282,1.8011661767959595,1000.0,992.0,728.0,704.0
479712000,0.056,15.292235374450684,0.2712857723236084,-1.6110224723815918,-2.591796875,1.834811806678772,-2.683387279510498,0.12051427364349365,0.20893332362174988,0.5774832963943481,-0.060266923159360886,0.03681037202477455,1.9338361024856567,1000.0,995.0,720.0,693.0
479760000,0.048,15.1029691696167,0.2817520499229431,-1.6948498487472534,-2.4713828563690186,2.1303746700286865,-2.833735942840576,0.1383698284626007,0.1995968520641327,0.6735968589782715,-0.027479758486151695,0.08316557109355927,2.0299737453460693,1000.0,995.0,809.0,788.0
479808000,0.048,14.908540725708008,0.29162660241127014,-1.7870675325393677,-2.304047107696533,2.4231674671173096,-3.050729513168335,0.1568813920021057,0.1899830847978592,0.7730754613876343,-0.016955530270934105,0.11585208773612976,2.074185609817505,953.0,951.0,886.0,867.0
479856000,0.048,14.706655502319336,0.29997166991233826,-1.8887039422988892,-2.097726583480835,2.7053709030151367,-3.2838423252105713,0.17480985820293427,0.17945596575737,0.8735026717185974,-0.013007820583879948,0.1303793489933014,2.0741689205169678,880.0,882.0,894.0,878.0
479912000,0.056,14.46242904663086,0.3079476058483124,-2.0178613662719727,-1.8199955224990845,3.0114617347717285,-3.499499559402466,0.19427995383739471,0.1655159443616867,0.9889146685600281,-0.004121855366975069,0.12586744129657745,2.021001100540161,800.0,806.0,904.0,888.0
479960000,0.048,14.247097969055176,0.31444376707077026,-2.1357550621032715,-1.5614243745803833,3.2465014457702637,-3.6406610012054443,0.2096138596534729,0.15206047892570496,1.0840108394622803,0.01298866793513298,0.11250006407499313,1.9370439052581787,750.0,759.0,912.0,896.0
480008000,0.048,14.02437973022461,0.3226170539855957,-2.2572991847991943,-1.2950241565704346,3.4527080059051514,-3.75685977935791,0.22386448085308075,0.13745638728141785,1.1734765768051147,0.03607218712568283,0.09368126839399338,1.8257004022598267,701.0,713.0,926.0,911.0
480064000,0.056,13.758878707885742,0.3305838704109192,-2.4044153690338135,-0.9860539436340332,3.654928207397461,-3.8748414516448975,0.2392566204071045,0.11947589367628098,1.2698945999145508,0.06660448759794235,0.07191722840070724,1.6706457138061523,674.0,688.0,935.0,921.0
480112000,0.048,13.524560928344727,0.33660152554512024,-2.533893585205078,-0.7320241332054138,3.7985122203826904,-3.968541383743286,0.25155898928642273,0.10371138900518417,1.3449492454528809,0.09340788424015045,0.05086316168308258,1.5230556726455688,649.0,664.0,941.0,927.0
480160000,0.048,13.28487491607666,0.34133562445640564,-2.6660475730895996,-0.4936302602291107,3.9182989597320557,-4.059115409851074,0.26319897174835205,0.08800213783979416,1.4125950336456299,0.11892896145582199,0.031751349568367004,1.3660420179367065,635.0,652.0,944.0,931.0
480208000,0.048,13.040620803833008,0.34468135237693787,-2.8005571365356445,-1.496990442276001,3.727689266204834,-4.15924072265625,0.2743154764175415,0.07264433801174164,1.2213610410690308,0.14257825911045074,0.01162240095436573,1.2045345306396484,621.0,639.0,945.0,932.0
480256000,0.048,12.790499687194824,0.34582048654556274,-2.9327352046966553,-1.3100013732910156,3.880133628845215,-4.2494378089904785,0.2848306894302368,0.05938506871461868,1.2732919454574585,0.14453712105751038,0.1407957673072815,1.0218815803527832,754.0,717.0,861.0,793.0
480312000,0.056,12.492525100708008,0.34803420305252075,-3.0900614261627197,-0.9736405611038208,4.050622463226318,-4.376394271850586,0.2967917025089264,0.06390711665153503,1.3417503833770752,0.18038317561149597,0.4719149172306061,0.9203649163246155,708.0,727.0,838.0,835.0
480372000,0.06,12.183464050292969,0.3500089943408966,-3.2504477500915527,-0.569142758846283,4.208230495452881,-4.481716632843018,0.31000468134880066,0.07295716553926468,1.4193542003631592,0.16158246994018555,0.4193718433380127,0.8344152569770813,681.0,718.0,858.0,860.0
480420000,0.048,11.91181468963623,0.35102638602256775,-3.3889846801757812,-0.23507224023342133,4.328892707824707,-4.560477256774902,0.3207182288169861,0.07616934925317764,1.4852451086044312,0.1516551673412323,0.2760724425315857,0.7488558292388916,666.0,708.0,873.0,877.0
480468000,0.048,11.635050773620605,0.35083505511283875,-3.528364896774292,0.040905069559812546,4.43118143081665,-4.640322685241699,0.33121001720428467,0.07308962941169739,1.5429400205612183,0.16500020027160645,0.10925833880901337,0.6508572697639465,660.0,695.0,890.0,888.0
480516000,0.048,11.353450775146484,0.34888365864753723,-3.6693685054779053,0.2600487768650055,4.518799304962158,-4.727071762084961,0.34167784452438354,0.0644063875079155,1.5924028158187866,0.18742774426937103,-0.03167719393968582,0.5438761711120605,656.0,689.0,897.0,893.0
480572000,0.056,11.017343521118164,0.34341731667518616,-3.8346011638641357,0.4358891248703003,4.61301326751709,-4.836870193481445,0.35347211360931396,0.04940207302570343,1.6368871927261353,0.1714756041765213,-0.16714830696582794,0.4141630530357361,662.0,649.0,870.0,896.0
480620000,0.048,10.72311019897461,0.33367782831192017,-3.9740614891052246,0.5302243828773499,4.727476119995117,-4.891150951385498,0.3559519052505493,0.033236708492040634,1.6663053035736084,-0.07963844388723373,-0.26378321647644043,0.3051217198371887,662.0,631.0,858.0,886.0
480668000,0.048,10.422990798950195,0.32086098194122314,-4.112943172454834,0.5824691653251648,4.918950080871582,-4.855055332183838,0.34184780716896057,0.016311760991811752,1.6874324083328247,-0.46236884593963623,-0.304200679063797,0.1998722404241562,662.0,623.0,851.0,868.0
480716000,0.048,10.117086410522461,0.3046284019947052,-4.251461505889893,0.6000784039497375,5.189498424530029,-4.710999488830566,0.3090985417366028,0.0015403759898617864,1.700832486152649,-0.8374204635620117,-0.27203214168548584,0.09892590343952179,662.0,632.0,852.0,856.0
480772000,0.056,9.753083229064941,0.2763451635837555,-4.413278579711914,0.6623843908309937,5.55917501449585,-4.409346580505371,0.2509867250919342,-0.009174146689474583,1.7211087942123413,-1.1538581848144531,-0.2001405656337738,-0.010374877601861954,657.0,653.0,852.0,847.0
480820000,0.048,9.437665939331055,0.24982230365276337,-4.55112886428833,0.6933667063713074,5.878541469573975,-4.067809104919434,0.190865159034729,-0.014542746357619762,1.7320977449417114,-1.3014572858810425,-0.17127276957035065,-0.09605769068002701,657.0,672.0,855.0,834.0
480868000,0.048,9.117149353027344,0.2178678810596466,-4.686878204345703,0.7107663750648499,6.163424491882324,-3.6815288066864014,0.12711195647716522,-0.01746465265750885,1.7402606010437012,-1.3355270624160767,-0.1363944113254547,-0.17509451508522034,662.0,691.0,855.0,826.0
480916000,0.048,8.795048713684082,0.1827724128961563,-4.821808338165283,0.7143049836158752,6.39068603515625,-3.2850418090820312,0.06462433934211731,-0.01904306933283806,1.7454941272735596,-1.280030608177185,-0.12577486038208008,-0.24661149084568024,669.0,702.0,854.0,821.0
480972000,0.056,8.420716285705566,0.14151756465435028,-4.978137016296387,0.6729001402854919,6.576412677764893,-2.8470747470855713,-0.0025419911835342646,-0.022494947537779808,1.7441197633743286,-1.1500972509384155,-0.11903342604637146,-0.32017645239830017,685.0,718.0,851.0,813.0
481020000,0.048,8.102057456970215,0.10681816190481186,-5.110001087188721,0.6094450950622559,6.669914245605469,-2.5125598907470703,-0.053238071501255035,-0.02654232084751129,1.7381114959716797,-1.0112167596817017,-0.09553997218608856,-0.37413787841796875,697.0,729.0,846.0,807.0
481068000,0.048,7.786893844604492,0.07285623252391815,-5.242616653442383,0.5217927694320679,6.7103471755981445,-2.226105213165283,-0.09683259576559067,-0.03128460422158241,1.7275023460388184,-0.8654645085334778,-0.06227435916662216,-0.41900089383125305,717.0,745.0,837.0,799.0
481116000,0.048,7.479119300842285,0.03800717368721962,-5.373553276062012,0.4189709722995758,6.70449161529541,-1.988053560256958,-0.13367882370948792,-0.03601774573326111,1.7139649391174316,-0.7342731952667236,-0.02101200632750988,-0.4527415931224823,730.0,759.0,829.0,793.0
481172000,0.056,7.1277666091918945,-0.001615603337995708,-5.526248931884766,0.29542073607444763,6.652194023132324,-1.7672529220581055,-0.16925805807113647,-0.04117634892463684,1.6961607933044434,-0.6051033139228821,0.012635486200451851,-0.47875404357910156,751.0,774.0,819.0,787.0
481220000,0.048,6.833143711090088,-0.03328905999660492,-5.657588958740234,0.18317484855651855,6.5778489112854,-1.6204297542572021,-0.1945074051618576,-0.04586014151573181,1.6784816980361938,-0.5186545848846436,0.0321749709546566,-0.4896509647369385,762.0,784.0,814.0,782.0
481268000,0.048,6.548154354095459,-0.06374245882034302,-5.78706169128418,0.07525092363357544,6.479534149169922,-1.5050722360610962,-0.2162170112133026,-0.05028112232685089,1.6601834297180176,-0.45194974541664124,0.052750300616025925,-0.49144473671913147,780.0,798.0,805.0,775.0
481316000,0.048,6.269191741943359,-0.09104511886835098,-5.917897701263428,-0.028749745339155197,6.364613056182861,-1.4169104099273682,-0.23489151895046234,-0.054361458867788315,1.6409016847610474,-0.3947981297969818,0.0682842954993248,-0.4841160178184509,793.0,809.0,798.0,770.0
481372000,0.056,5.957524299621582,-0.11873593181371689,-6.072291374206543,-0.14078877866268158,6.209510803222656,-1.3442103862762451,-0.2536282539367676,-0.058429181575775146,1.6179043054580688,-0.342058002948761,0.0855286493897438,-0.4650299549102783,804.0,821.0,791.0,762.0
481420000,0.048,5.699370384216309,-0.13880112767219543,-6.2058844566345215,-0.22614596784114838,6.063963413238525,-1.3036220073699951,-0.26740869879722595,-0.06130587309598923,1.5983166694641113,-0.2949213683605194,0.0924895778298378,-0.4413754343986511,810.0,826.0,787.0,758.0
481468000,0.048,5.449819564819336,-0.15507107973098755,-6.340548515319824,-0.30168160796165466,5.908472537994385,-1.2826628684997559,-0.27896398305892944,-0.06363222002983093,1.578944444656372,-0.2498047947883606,0.09775123000144958,-0.4115460216999054,820.0,835.0,780.0,753.0
481516000,0.048,5.215275764465332,-0.16635662317276,-6.476601600646973,-0.3675403594970703,5.7409138679504395,-1.279916763305664,-0.288708359003067,-0.06542220711708069,1.5598148107528687,-0.20846892893314362,0.09887834638357162,-0.3768543004989624,824.0,840.0,776.0,748.0
481572000,0.056,4.950366973876953,-0.17601098120212555,-6.636218070983887,-0.4278019368648529,5.5396928787231445,-1.296694040298462,-0.29738882184028625,-0.06675198674201965,1.5390563011169434,-0.15158890187740326,0.09965702891349792,-0.33120009303092957,829.0,843.0,771.0,745.0
481620000,0.048,4.739196300506592,-0.17897175252437592,-6.772705078125,-0.4666745960712433,5.3578877449035645,-1.3280515670776367,-0.30263394117355347,-0.06727663427591324,1.5222584009170532,-0.10883119702339172,0.0965128168463707,-0.28890153765678406,832.0,845.0,768.0,741.0
481668000,0.048,4.536409378051758,-0.17942804098129272,-6.909663200378418,-0.4934178590774536,5.173863887786865,-1.370937705039978,-0.3060341477394104,-0.06721601635217667,1.5069421529769897,-0.06397417187690735,0.09462140500545502,-0.24453094601631165,834.0,846.0,764.0,740.0
481716000,0.048,4.342440128326416,-0.1784578412771225,-7.046909332275391,-0.5069802403450012,4.988229274749756,-1.4250221252441406,-0.30744054913520813,-0.06644954532384872,1.4936647415161133,-0.0244511216878891,0.0933193638920784,-0.1994146704673767,835.0,846.0,762.0,740.0
481772000,0.056,4.134953498840332,-0.17725780606269836,-7.2062201499938965,-0.5189505815505981,4.76591682434082,-1.4915170669555664,-0.3074396848678589,-0.06484571844339371,1.478682518005371,0.011269641108810902,0.08391541242599487,-0.14708535373210907,798.0,811.0,725.0,704.0
481820000,0.048,3.9637691974639893,-0.17483100295066833,-7.342500686645508,-0.5176627039909363,4.578454494476318,-1.5247390270233154,-0.30589210987091064,-0.06333879381418228,1.4683665037155151,0.04389554634690285,0.06559399515390396,-0.10441563278436661,777.0,786.0,702.0,684.0
481868000,0.048,3.8047842979431152,-0.17356176674365997,-7.475058078765869,-0.5173911452293396,4.388603687286377,-1.5306367874145508,-0.3035010099411011,-0.06195148825645447,1.4587630033493042,0.05351191759109497,0.0490061417222023,-0.064374178647995,750.0,760.0,675.0,663.0
481916000,0.048,3.6538777351379395,-0.17272861301898956,-7.6038689613342285,-0.5163930654525757,4.201483726501465,-1.5104414224624634,-0.3013787865638733,-0.06083647906780243,1.4499609470367432,0.04659983888268471,0.022805562242865562,-0.026336614042520523,739.0,748.0,665.0,653.0
481972000,0.056,3.486670732498169,-0.17225028574466705,-7.748498439788818,-0.5101692080497742,3.9876506328582764,-1.4619377851486206,-0.299503892660141,-0.06069641560316086,1.4424430131912231,0.03519816696643829,-0.014196932315826416,0.014577058143913746,728.0,734.0,657.0,644.0
482020000,0.048,3.3542654514312744,-0.1739179491996765,-7.865929126739502,-0.5117635130882263,3.803534984588623,-1.4042246341705322,-0.2986980080604553,-0.061305802315473557,1.4355958700180054,0.02587476186454296,-0.036829568445682526,0.04744835942983627,718.0,730.0,653.0,640.0
482068000,0.048,3.2259206771850586,-0.17565453052520752,-7.97861385345459,-0.5042358040809631,3.624586343765259,-1.3385943174362183,-0.29788392782211304,-0.06272328644990921,1.4315218925476074,0.03492143750190735,-0.06544007360935211,0.0784510001540184,716.0,723.0,654.0,638.0
482116000,0.048,3.108703136444092,-0.18003390729427338,-8.0848970413208,-0.49636971950531006,3.4436471462249756,-1.271396517753601,-0.2965172231197357,-0.06468932330608368,1.4286853075027466,0.050177156925201416,-0.0772273987531662,0.10698192566633224,713.0,723.0,656.0,640.0
482172000,0.056,2.980409622192383,-0.1867111474275589,-8.201752662658691,-0.4824618101119995,3.234602451324463,-1.1950536966323853,-0.2938610315322876,-0.06696797907352448,1.4267749786376953,0.08023583889007568,-0.08697522431612015,0.13761518895626068,712.0,721.0,661.0,645.0
482220000,0.048,2.875325918197632,-0.1928330808877945,-8.296013832092285,-0.4613201916217804,3.0591559410095215,-1.135036587715149,-0.2899801433086395,-0.06901802122592926,1.42789626121521,0.11263811588287354,-0.09169812500476837,0.1608237773180008,714.0,720.0,667.0,650.0
482268000,0.048,2.7787375450134277,-0.20122234523296356,-8.383383750915527,-0.4423386752605438,2.882890462875366,-1.0805916786193848,-0.2848566472530365,-0.07064807415008545,1.4288517236709595,0.13832058012485504,-0.08404320478439331,0.18121705949306488,714.0,722.0,674.0,659.0
482316000,0.048,2.685706853866577,-0.2093743085861206,-8.466144561767578,-0.41505175828933716,2.7126176357269287,-1.031799554824829,-0.27846699953079224,-0.07190994173288345,1.4319881200790405,0.16596171259880066,-0.08284525573253632,0.19905515015125275,716.0,722.0,680.0,666.0
482372000,0.056,2.5865354537963867,-0.21810708940029144,-8.5547456741333,-0.3790542185306549,2.5171830654144287,-0.9815866351127625,-0.2696968615055084,-0.07289782911539078,1.4371545314788818,0.18759511411190033,-0.07157143950462341,0.21577535569667816,717.0,723.0,690.0,677.0
482420000,0.048,2.506906032562256,-0.22517333924770355,-8.625601768493652,-0.3439861536026001,2.3557612895965576,-0.9433810114860535,-0.26136496663093567,-0.0730704516172409,1.4427541494369507,0.2037619948387146,-0.05994323641061783,0.2270851880311966,719.0,723.0,697.0,684.0
482468000,0.048,2.4315292835235596,-0.2314552515745163,-8.692422866821289,-0.30394458770751953,2.2011237144470215,-0.9091987013816833,-0.2523866891860962,-0.07265771925449371,1.449876070022583,0.21346649527549744,-0.04473457857966423,0.2350439578294754,720.0,723.0,705.0,695.0
482516000,0.048,2.3630847930908203,-0.23585118353366852,-8.754324913024902,-0.26038414239883423,2.0510823726654053,-0.8778243064880371,-0.24314981698989868,-0.07153979688882828,1.4580105543136597,0.21558715403079987,-0.02562709152698517,0.2399693727493286,721.0,723.0,712.0,701.0
482572000,0.056,2.2874255180358887,-0.23999226093292236,-8.82252025604248,-0.2068156749010086,1.885203242301941,-0.8444291353225708,-0.23221422731876373,-0.06906194984912872,1.4686310291290283,0.21743546426296234,0.0016608708538115025,0.24151624739170074,721.0,723.0,722.0,712.0
482620000,0.048,2.2327277660369873,-0.24072660505771637,-8.875517845153809,-0.1605508178472519,1.7459381818771362,-0.8180550932884216,-0.22282721102237701,-0.06601171940565109,1.4780927896499634,0.2146146595478058,0.022620949894189835,0.239486426115036,720.0,723.0,726.0,718.0
482668000,0.048,2.182018280029297,-0.24034476280212402,-8.925556182861328,-0.1152733713388443,1.6129271984100342,-0.793347179889679,-0.21335995197296143,-0.06220420077443123,1.4876741170883179,0.2189592719078064,0.040754109621047974,0.2342061996459961,720.0,723.0,735.0,728.0
482716000,0.048,2.135045051574707,-0.23902831971645355,-8.972041130065918,-0.07148873805999756,1.4860581159591675,-0.7705625295639038,-0.20345352590084076,-0.05780363082885742,1.4972813129425049,0.22547729313373566,0.05411526933312416,0.22628003358840942,720.0,723.0,739.0,732.0
482772000,0.056,2.089138984680176,-0.23590220510959625,-9.01730728149414,-0.022292276844382286,1.3434447050094604,-0.7445789575576782,-0.1916060894727707,-0.052295293658971786,1.5084837675094604,0.22880323231220245,0.06597550958395004,0.21378828585147858,721.0,725.0,748.0,742.0
482796000,0.024,2.070345878601074,-0.2341161072254181,-9.036211967468262,-0.002494115848094225,1.2852505445480347,-0.7345056533813477,-0.18639607727527618,-0.04980744421482086,1.5131529569625854,0.2313966155052185,0.0715780109167099,0.20766153931617737,721.0,725.0,748.0,744.0
482812000,0.016,2.058119297027588,-0.232775017619133,-9.048654556274414,0.010244290344417095,1.2474122047424316,-0.7281541228294373,-0.18287263810634613,-0.048122089356184006,1.5162034034729004,0.23272910714149475,0.0738040953874588,0.2029285728931427,722.0,726.0,751.0,747.0
482820000,0.008,2.0520973205566406,-0.23205934464931488,-9.054828643798828,0.016472822055220604,1.2287853956222534,-0.7250752449035645,-0.18110336363315582,-0.047270722687244415,1.517709493637085,0.23295967280864716,0.0752074122428894,0.2008552849292755,722.0,726.0,752.0,747.0
482828000,0.008,2.0461363792419434,-0.23131342232227325,-9.060972213745117,0.022620530799031258,1.2103465795516968,-0.7220396995544434,-0.17932824790477753,-0.04641469195485115,1.5192006826400757,0.2331468164920807,0.07650262862443924,0.1983695924282074,723.0,726.0,754.0,749.0
482836000,0.008,2.040236711502075,-0.23053666949272156,-9.067084312438965,0.028658831492066383,1.1920865774154663,-0.7190553545951843,-0.17754851281642914,-0.04555768892168999,1.5206778049468994,0.2334989309310913,0.0771312341094017,0.1961977481842041,723.0,726.0,753.0,749.0
482852000,0.016,2.0302035808563232,-0.22723886370658875,-9.078837394714355,0.0424555279314518,1.1553744077682495,-0.7132160067558289,-0.17398174107074738,-0.04386565834283829,1.5237512588500977,0.23346880078315735,0.0779346227645874,0.19101963937282562,723.0,726.0,754.0,751.0
482860000,0.008,2.0252552032470703,-0.2255585491657257,-9.084673881530762,0.04924113303422928,1.1373018026351929,-0.7103183269500732,-0.1721956431865692,-0.043025653809309006,1.525344967842102,0.23358018696308136,0.07892409712076187,0.1884777545928955,723.0,726.0,756.0,751.0
482868000,0.008,2.020352840423584,-0.22385692596435547,-9.090482711791992,0.05591113865375519,1.1194090843200684,-0.7074518799781799,-0.17040641605854034,-0.042181771248579025,1.5269204378128052,0.2336573600769043,0.0801449716091156,0.1858178973197937,390.0,159.0,409.0,1000.0
482876000,0.008,2.0154969692230225,-0.22213391959667206,-9.096264839172363,0.062422797083854675,1.101723313331604,-0.7046032547950745,-0.16861693561077118,-0.0413382425904274,1.5284602642059326,0.2331090122461319,0.08110757917165756,0.17872659862041473,381.0,150.0,430.0,1000.0
482892000,0.016,2.005903959274292,-0.21862883865833282,-9.107654571533203,0.07299042493104935,1.0697784423828125,-0.6791871786117554,-0.16793178021907806,-0.041494645178318024,1.5313570499420166,-0.13528957962989807,-0.14832474291324615,0.13272738456726074,335.0,150.0,729.0,1000.0
482900000,0.008,2.0011465549468994,-0.2168516218662262,-9.113163948059082,0.07628508657217026,1.0566000938415527,-0.6551051139831543,-0.17111855745315552,-0.04384376108646393,1.5328830480575562,-0.477455735206604,-0.3703431189060211,0.10463414341211319,351.0,150.0,782.0,1000.0
482908000,0.008,1.9964090585708618,-0.21505993604660034,-9.118512153625488,0.07836634665727615,1.0449883937835693,-0.627073347568512,-0.17716805636882782,-0.048079270869493484,1.5344897508621216,-0.833580493927002,-0.6052390336990356,0.07069742679595947,392.0,150.0,935.0,1000.0
482916000,0.008,1.9916962385177612,-0.21325014531612396,-9.123700141906738,0.07965677976608276,1.0343276262283325,-0.5983580350875854,-0.18586310744285583,-0.054019324481487274,1.5361484289169312,-1.1519291400909424,-0.8062684535980225,0.03382839262485504,390.0,150.0,918.0,1000.0
482932000,0.016,1.9823824167251587,-0.20955857634544373,-9.133671760559082,0.0816403478384018,1.013524055480957,-0.5448853373527527,-0.2096594274044037,-0.06938198208808899,1.5393993854522705,-1.6428213119506836,-1.0457055568695068,-0.04704585298895836,363.0,150.0,984.0,1000.0
482940000,0.008,1.977806568145752,-0.2076653391122818,-9.138500213623047,0.08298949152231216,1.0025070905685425,-0.5208157896995544,-0.22398926317691803,-0.07800894975662231,1.540871262550354,-1.8178632259368896,-1.0939663648605347,-0.0901758149266243,354.0,150.0,996.0,1000.0
482948000,0.008,1.9733021259307861,-0.2057323306798935,-9.143247604370117,0.084845632314682,0.9906508922576904,-0.4982897639274597,-0.23946599662303925,-0.08684971928596497,1.5421662330627441,-1.9515960216522217,-1.1053252220153809,-0.13455165922641754,317.0,150.0,1000.0,1000.0
482956000,0.008,1.9688823223114014,-0.20375335216522217,-9.14792537689209,0.08734820783138275,0.9777684807777405,-0.4770396053791046,-0.2558189928531647,-0.09566680341959,1.5432264804840088,-2.0558359622955322,-1.0868713855743408,-0.18031254410743713,324.0,150.0,1000.0,1000.0
482972000,0.016,1.9599108695983887,-0.19944220781326294,-9.157296180725098,0.09457235783338547,0.9486290812492371,-0.4367559254169464,-0.29045963287353516,-0.1127743199467659,1.54453444480896,-2.2086451053619385,-1.015526294708252,-0.2726745307445526,289.0,150.0,1000.0,1000.0
482980000,0.008,1.955605149269104,-0.19719825685024261,-9.161879539489746,0.0991496741771698,0.9320219159126282,-0.4172287881374359,-0.308498352766037,-0.12101661413908005,1.5447521209716797,-2.2650811672210693,-0.973843514919281,-0.31930312514305115,274.0,150.0,1000.0,998.0
482996000,0.016,1.9474070072174072,-0.19251449406147003,-9.170822143554688,0.11017723381519318,0.8945830464363098,-0.3791584074497223,-0.34568706154823303,-0.13685652613639832,1.5442336797714233,-2.36517596244812,-0.8886087536811829,-0.41284605860710144,264.0,150.0,1000.0,955.0
483004000,0.008,1.9435346126556396,-0.19006723165512085,-9.175169944763184,0.11656994372606277,0.8736717104911804,-0.3605872094631195,-0.36475178599357605,-0.1445259153842926,1.5435031652450562,-2.404871702194214,-0.8504599332809448,-0.4589225649833679,268.0,150.0,1000.0,917.0
483012000,0.008,1.9398260116577148,-0.18754620850086212,-9.179423332214355,0.12358028441667557,0.8512037992477417,-0.3420681059360504,-0.3839885890483856,-0.15201431512832642,1.5424407720565796,-2.4292359352111816,-0.8034372329711914,-0.5044320225715637,264.0,150.0,1000.0,885.0
483020000,0.008,1.9362891912460327,-0.18494954705238342,-9.183570861816406,0.13126330077648163,0.8271605968475342,-0.32335126399993896,-0.40325331687927246,-0.15920822322368622,1.5409982204437256,-2.4369723796844482,-0.7379533052444458,-0.5482677817344666,263.0,150.0,1000.0,873.0
483028000,0.008,1.9329304695129395,-0.18227605521678925,-9.187597274780273,0.13965162634849548,0.801488995552063,-0.30437740683555603,-0.4223913848400116,-0.16599558293819427,1.5391134023666382,-2.4263882637023926,-0.6559959650039673,-0.5913613438606262,238.0,150.0,1000.0,875.0
483036000,0.008,1.9297560453414917,-0.17952513694763184,-9.191486358642578,0.14875353872776031,0.7741789221763611,-0.2853519916534424,-0.44120755791664124,-0.17227685451507568,1.536721110343933,-2.392030715942383,-0.5578479766845703,-0.6333988904953003,247.0,150.0,1000.0,864.0
483052000,0.016,1.923981785774231,-0.1737908273935318,-9.198797225952148,0.16907013952732086,0.7146692872047424,-0.2482805848121643,-0.4770916998386383,-0.1828676164150238,1.5300660133361816,-2.2661163806915283,-0.3086354434490204,-0.7166020274162292,211.0,150.0,1000.0,885.0
483060000,0.008,1.9213942289352417,-0.1708056628704071,-9.20219612121582,0.1801706999540329,0.6826453804969788,-0.23101326823234558,-0.4939682185649872,-0.18708787858486176,1.5256742238998413,-2.191826105117798,-0.17639169096946716,-0.7584101557731628,213.0,150.0,1000.0,890.0
483068000,0.008,1.9190154075622559,-0.16774429380893707,-9.205412864685059,0.1918182671070099,0.6492661237716675,-0.21483102440834045,-0.5100426077842712,-0.19062167406082153,1.5205357074737549,-2.1087403297424316,-0.04550876095890999,-0.79998379945755,199.0,162.0,1000.0,900.0
483076000,0.008,1.9168521165847778,-0.16460782289505005,-9.208439826965332,0.20394515991210938,0.6146153211593628,-0.19992080330848694,-0.5252412557601929,-0.19348782300949097,1.5146193504333496,-2.019066572189331,0.08632677048444748,-0.8418991565704346,190.0,163.0,1000.0,909.0
483092000,0.016,1.9126278162002563,-0.15817120671272278,-9.214486122131348,0.22927671670913696,0.542590320110321,-0.17393021285533905,-0.5529985427856445,-0.19731789827346802,1.500381350517273,-1.8435298204421997,0.3419812321662903,-0.9249732494354248,199.0,210.0,1000.0,917.0
483100000,0.008,1.910588264465332,-0.15487419068813324,-9.217484474182129,0.24238400161266327,0.5054505467414856,-0.1631671041250229,-0.5655844211578369,-0.19842736423015594,1.4921008348464966,-1.7577823400497437,0.453098326921463,-0.9666916728019714,190.0,194.0,1000.0,920.0
483108000,0.008,1.9088010787963867,-0.1515093296766281,-9.220270156860352,0.255758672952652,0.4674931764602661,-0.1540059894323349,-0.5773305892944336,-0.19910873472690582,1.4830753803253174,-1.6725809574127197,0.5573315620422363,-1.0083322525024414,202.0,243.0,1000.0,926.0
483116000,0.008,1.9072740077972412,-0.1480795443058014,-9.222840309143066,0.26941126585006714,0.4288237690925598,-0.1462857872247696,-0.5882647037506104,-0.19940681755542755,1.4733223915100098,-1.5910170078277588,0.6559051871299744,-1.0493265390396118,195.0,244.0,1000.0,932.0
483132000,0.016,1.905029058456421,-0.1410374790430069,-9.227339744567871,0.29739728569984436,0.3496875464916229,-0.13501174747943878,-0.6078066825866699,-0.19913551211357117,1.4517697095870972,-1.4300943613052368,0.8225798010826111,-1.1317640542984009,208.0,290.0,1000.0,939.0
483140000,0.008,1.9043253660202026,-0.13743343949317932,-9.229269981384277,0.31176725029945374,0.30937960743904114,-0.13132469356060028,-0.6163930296897888,-0.19867923855781555,1.4400378465652466,-1.345430850982666,0.8967732787132263,-1.1725891828536987,200.0,275.0,1000.0,940.0
483148000,0.008,1.9039100408554077,-0.1337808072566986,-9.230987548828125,0.3264184594154358,0.26871997117996216,-0.12881867587566376,-0.6241953372955322,-0.19805501401424408,1.427694320678711,-1.2624859809875488,0.9651129245758057,-1.213330864906311,213.0,320.0,1000.0,946.0
483156000,0.008,1.9037891626358032,-0.1300845444202423,-9.232494354248047,0.3413212299346924,0.22775116562843323,-0.1275106817483902,-0.6312437653541565,-0.1973237842321396,1.414785385131836,-1.1815621852874756,1.0227910280227661,-1.253842830657959,208.0,319.0,1000.0,952.0
483172000,0.016,1.9044568538665771,-0.12258269637823105,-9.234882354736328,0.3720322847366333,0.14518938958644867,-0.12823697924613953,-0.6430539488792419,-0.19578322768211365,1.3874567747116089,-1.0113543272018433,1.1126214265823364,-1.3344244956970215,214.0,345.0,1000.0,960.0
483180000,0.008,1.9052571058273315,-0.11878827959299088,-9.235767364501953,0.3879315257072449,0.10373599827289581,-0.13006506860256195,-0.6478144526481628,-0.1950351893901825,1.3730944395065308,-0.9268584251403809,1.1488133668899536,-1.3746737241744995,220.0,362.0,1000.0,958.0
483188000,0.008,1.9063754081726074,-0.1149725466966629,-9.236448287963867,0.40420976281166077,0.06228135526180267,-0.13278554379940033,-0.6518306732177734,-0.194366455078125,1.3583269119262695,-0.8420882225036621,1.1744334697723389,-1.4145312309265137,235.0,382.0,1000.0,961.0
483196000,0.008,1.9078165292739868,-0.11114158481359482,-9.236928939819336,0.4209023714065552,0.02084919810295105,-0.13634778559207916,-0.6550857424736023,-0.19382770359516144,1.343201994895935,-0.7536899447441101,1.191551685333252,-1.4541962146759033,239.0,388.0,1000.0,967.0
483212000,0.016,1.9116878509521484,-0.10346859693527222,-9.237298965454102,0.4556930363178253,-0.06172715499997139,-0.1455543339252472,-0.6592711806297302,-0.19321751594543457,1.3119847774505615,-0.573990523815155,1.2124625444412231,-1.5325223207473755,263.0,423.0,1000.0,972.0
483220000,0.008,1.9148892164230347,-0.0982731506228447,-9.236162185668945,0.47587040066719055,-0.10232700407505035,-0.15091784298419952,-0.660208523273468,-0.19320400059223175,1.2959603071212769,-0.4834572672843933,1.2116281986236572,-1.5713579654693604,272.0,433.0,1000.0,969.0
483228000,0.008,1.9184099435806274,-0.09309455752372742,-9.234861373901367,0.4964662194252014,-0.14277638494968414,-0.15695343911647797,-0.6603662371635437,-0.19338834285736084,1.2800766229629517,-0.38985031843185425,1.2031638622283936,-1.609073281288147,331.0,489.0,1000.0,975.0
483236000,0.008,1.9222544431686401,-0.0879385843873024,-9.23340129852295,0.5175939202308655,-0.1828581690788269,-0.16363121569156647,-0.6597183346748352,-0.1938314586877823,1.2640079259872437,-0.29387712478637695,1.1904737949371338,-1.6457890272140503,317.0,477.0,1000.0,971.0
483252000,0.016,1.930934190750122,-0.07771693915128708,-9.230027198791504,0.5615647435188293,-0.2616765797138214,-0.17922236025333405,-0.6559781432151794,-0.19560062885284424,1.2314661741256714,-0.09808579832315445,1.1423035860061646,-1.7169029712677002,380.0,526.0,1000.0,974.0
