timestamp,dt,x,y,z,vx,vy,vz,roll,pitch,yaw,roll_rate,pitch_rate,yaw_rate,motor1,motor2,motor3,motor4
1746577300387303,1746577300.387303,0.031929392367601395,-0.06614558398723602,-9.008869171142578,0.011219206266105175,-0.01661473512649536,-0.9642953872680664,-0.002088067354634404,-0.015632642433047295,1.5718282461166382,0.015017341822385788,-0.01103257667273283,-0.027050402015447617,733.0,733.0,730.0,730.0
1746577300443303,0.056,0.03442759066820145,-0.0667986124753952,-9.053181648254395,0.011446192860603333,-0.016688009724020958,-0.9097907543182373,-0.0012445461470633745,-0.016158809885382652,1.5694626569747925,0.013940688222646713,-0.008048638701438904,-0.02476370520889759,738.0,737.0,733.0,733.0
1746577300491663,0.04836,0.03950544074177742,-0.06751978397369385,-9.088261604309082,0.011813672259449959,-0.017652036622166634,-0.8663633465766907,-0.0006951140821911395,-0.01646239310503006,1.5675228834152222,0.010786008089780807,-0.005008568521589041,-0.022878369316458702,740.0,740.0,734.0,734.0
1746577300547663,0.056,0.04465863108634949,-0.06797230243682861,-9.128152847290039,0.010219711810350418,-0.014932469464838505,-0.805640697479248,-0.0031323598232120275,-0.018878843635320663,1.565363883972168,-0.3787466287612915,-0.2821166515350342,-0.0538654662668705,345.0,150.0,739.0,1000.0
1746577300595663,0.048,0.048187073320150375,-0.06895150244235992,-9.157288551330566,-0.01923074759542942,0.029279259964823723,-0.6828640699386597,-0.0771663561463356,-0.07080850750207901,1.5595476627349854,-2.317124128341675,-1.5301295518875122,-0.26385319232940674,335.0,150.0,962.0,1000.0
1746577300643663,0.048,0.05249824747443199,-0.06908190250396729,-9.182487487792969,-0.025925345718860626,0.05181474983692169,-0.6213421821594238,-0.2043883055448532,-0.14774644374847412,1.5501337051391602,-2.9003727436065674,-1.5137521028518677,-0.5287423133850098,368.0,150.0,1000.0,1000.0
1746577300691663,0.048,0.05920100584626198,-0.06702427566051483,-9.204973220825195,0.011972606182098389,0.020877733826637268,-0.5950088500976562,-0.3501780927181244,-0.21881935000419617,1.5359752178192139,-3.2456905841827393,-1.1740857362747192,-0.7936028242111206,357.0,171.0,1000.0,879.0
1746577300747663,0.056,0.06861334294080734,-0.06295721232891083,-9.223477363586426,0.1171548143029213,-0.0849667489528656,-0.5855599045753479,-0.5229821801185608,-0.2780865728855133,1.5034916400909424,-3.107901096343994,-0.23705919086933136,-1.064601182937622,336.0,304.0,1000.0,911.0
1746577300795663,0.048,0.0873192548751831,-0.05496570095419884,-9.233704566955566,0.25972503423690796,-0.23346054553985596,-0.6276466846466064,-0.645214319229126,-0.3018384873867035,1.4480350017547607,-2.6610465049743652,0.534883975982666,-1.2836940288543701,349.0,416.0,1000.0,910.0
1746577300843663,0.048,0.11496027559041977,-0.04166779667139053,-9.238962173461914,0.4436336159706116,-0.41330015659332275,-0.7184513211250305,-0.731376588344574,-0.31323882937431335,1.3671549558639526,-1.985469937324524,1.0596500635147095,-1.4904108047485352,381.0,535.0,1000.0,927.0
1746577300891663,0.048,0.15574458241462708,-0.02562997303903103,-9.237930297851562,0.6647925972938538,-0.6119697093963623,-0.8388513326644897,-0.774182915687561,-0.3236962556838989,1.2685061693191528,-1.1548947095870972,1.2617696523666382,-1.6854628324508667,407.0,561.0,1000.0,953.0
1746577300947663,0.056,0.22579890489578247,-0.005889865104109049,-9.228248596191406,0.9675660133361816,-0.8523657917976379,-0.9933618307113647,-0.7677833437919617,-0.3446275591850281,1.1427522897720337,-0.16859684884548187,1.1589939594268799,-1.886308193206787,601.0,716.0,1000.0,968.0
1746577300995663,0.048,0.31272807717323303,0.014493783935904503,-9.214341163635254,1.2619688510894775,-1.0549565553665161,-1.1460055112838745,-0.7168657183647156,-0.3718447983264923,1.037150263786316,0.6138861179351807,0.9225091934204102,-2.0099081993103027,738.0,799.0,1000.0,972.0
1746577301043663,0.048,0.41809362173080444,0.03166332468390465,-9.198213577270508,1.5846023559570312,-1.2359634637832642,-1.3115156888961792,-0.6305721998214722,-0.40320178866386414,0.9313158988952637,1.1755108833312988,0.7552444338798523,-2.082611083984375,837.0,840.0,928.0,923.0
1746577301091663,0.048,0.5528876185417175,0.0405195951461792,-9.179658889770508,1.944880485534668,-1.3794806003570557,-1.443293809890747,-0.5195183753967285,-0.4278310239315033,0.8124457001686096,1.4547855854034424,0.714541494846344,-2.1051254272460938,858.0,847.0,867.0,870.0
1746577301147663,0.056,0.7365211844444275,0.042356181889772415,-9.159200668334961,2.4047422409057617,-1.4476364850997925,-1.4865235090255737,-0.37765973806381226,-0.43724381923675537,0.6582809090614319,1.4946192502975464,0.7166169285774231,-2.070354461669922,890.0,870.0,774.0,812.0
1746577301195663,0.048,0.9111297726631165,0.038886625319719315,-9.143692016601562,2.7912275791168213,-1.4131507873535156,-1.4604978561401367,-0.2605714797973633,-0.4314640760421753,0.528875470161438,1.3540235757827759,0.6449165940284729,-1.9923241138458252,915.0,891.0,713.0,770.0
1746577301243663,0.048,1.110508918762207,0.02778618596494198,-9.127642631530762,3.1606247425079346,-1.2846269607543945,-1.4142144918441772,-0.15935009717941284,-0.4149753451347351,0.3992573022842407,1.080302119255066,0.5310426950454712,-1.8784713745117188,933.0,923.0,655.0,715.0
1746577301291663,0.048,1.3169355392456055,0.012210823595523834,-9.114185333251953,3.4811971187591553,-1.0813448429107666,-1.382215976715088,-0.07788265496492386,-0.39673280715942383,0.2808542251586914,0.8117562532424927,0.3947761058807373,-1.7359811067581177,943.0,934.0,629.0,681.0
1746577301347663,0.056,1.5762964487075806,-0.00654959212988615,-9.10415267944336,3.7961859703063965,-0.7819572687149048,-1.3835694789886475,-0.004767205566167831,-0.3785949647426605,0.16113567352294922,0.5397041440010071,0.2694164514541626,-1.5425618886947632,956.0,944.0,596.0,639.0
1746577301395663,0.048,1.8071084022521973,-0.022963538765907288,-9.097954750061035,4.018091678619385,-0.5061944127082825,-1.4074620008468628,0.04175476357340813,-0.3653595447540283,0.07453188300132751,0.31920427083969116,0.24870829284191132,-1.3614554405212402,957.0,945.0,579.0,615.0
1746577301443663,0.048,2.043043851852417,-0.03887982293963432,-9.091782569885254,4.207280158996582,-0.2267555445432663,-1.4324723482131958,0.0742676705121994,-0.35176992416381836,0.0015596708981320262,0.1196274608373642,0.27693572640419006,-1.1744033098220825,951.0,948.0,568.0,598.0
1746577301491663,0.048,2.287757158279419,-0.04936880245804787,-9.08260440826416,4.375210285186768,0.03230533003807068,-1.4498310089111328,0.0950130969285965,-0.3377637565135956,-0.05247551202774048,-0.041482049971818924,0.32708272337913513,-0.9872465133666992,947.0,938.0,566.0,596.0
1746577301548056,0.056393,2.578599214553833,-0.05816173925995827,-9.072598457336426,4.5522966384887695,0.3032469153404236,-1.4405642747879028,0.10533442348241806,-0.31842997670173645,-0.0994611382484436,-0.22768042981624603,0.4056452512741089,-0.7748108506202698,930.0,935.0,571.0,601.0
1746577301596056,0.048,2.836858034133911,-0.0563245490193367,-9.061599731445312,4.695101261138916,0.5075575113296509,-1.4033185243606567,0.10339876264333725,-0.2996205687522888,-0.12488116323947906,-0.35219869017601013,0.44343382120132446,-0.603756308555603,918.0,925.0,581.0,610.0
1746577301644056,0.048,3.1008219718933105,-0.04769019037485123,-9.049764633178711,4.830440044403076,0.6713141798973083,-1.3427640199661255,0.09386378526687622,-0.2799728810787201,-0.13847604393959045,-0.446056604385376,0.44897645711898804,-0.44557929039001465,895.0,913.0,601.0,627.0
1746577301692056,0.048,3.3687658309936523,-0.03488954156637192,-9.038297653198242,4.957002639770508,0.8002270460128784,-1.264038324356079,0.0775362104177475,-0.2603859603404999,-0.144875630736351,-0.5253797173500061,0.4310462176799774,-0.30287861824035645,882.0,904.0,616.0,637.0
1746577301748056,0.056,3.6891117095947266,-0.012614060193300247,-9.024964332580566,5.095100402832031,0.9026626944541931,-1.1607530117034912,0.05290820822119713,-0.23912201821804047,-0.14405640959739685,-0.550947904586792,0.37922054529190063,-0.15827623009681702,859.0,889.0,641.0,656.0
1746577301796056,0.048,3.9658854007720947,0.008952734991908073,-9.013885498046875,5.2021074295043945,0.9511233568191528,-1.072364330291748,0.03009391762316227,-0.22305500507354736,-0.13920968770980835,-0.5211602449417114,0.3254447281360626,-0.052848104387521744,844.0,877.0,660.0,669.0
1746577301844056,0.048,4.245426654815674,0.03178643435239792,-8.999897956848145,5.300124645233154,0.9662925004959106,-0.9900321960449219,0.008179870434105396,-0.20914949476718903,-0.1313914954662323,-0.4514324367046356,0.27190035581588745,0.035461895167827606,826.0,861.0,683.0,687.0
1746577301892056,0.048,4.526788711547852,0.05546123906970024,-8.985154151916504,5.389629364013672,0.950448751449585,-0.9187041521072388,-0.010859007947146893,-0.19732844829559326,-0.12130571156740189,-0.3532048463821411,0.2273903787136078,0.1077311560511589,817.0,853.0,696.0,697.0
1746577301948056,0.056,4.8562140464782715,0.08277885615825653,-8.968332290649414,5.483565330505371,0.8996677398681641,-0.8508908748626709,-0.028021885082125664,-0.18554536998271942,-0.10777702927589417,-0.22815102338790894,0.18983875215053558,0.1747637540102005,804.0,837.0,714.0,715.0
1746577301996056,0.048,5.138937473297119,0.10311673581600189,-8.951482772827148,5.555682182312012,0.8340871930122375,-0.8035892248153687,-0.03804829716682434,-0.17668509483337402,-0.09525347501039505,-0.12573003768920898,0.16730612516403198,0.21790392696857452,794.0,826.0,726.0,728.0
1746577302052056,0.056,5.469784259796143,0.1261310875415802,-8.933470726013184,5.631136417388916,0.7401413321495056,-0.7593015432357788,-0.0445319339632988,-0.16734185814857483,-0.07985749840736389,-0.0229447353631258,0.14828133583068848,0.254176527261734,783.0,811.0,739.0,746.0
1746577302108056,0.056,5.806784152984619,0.14620789885520935,-8.910677909851074,5.700741767883301,0.6338552236557007,-0.7229442596435547,-0.046503130346536636,-0.15892575681209564,-0.06444673240184784,0.049853283911943436,0.13438928127288818,0.2777860760688782,775.0,801.0,749.0,758.0
1746577302156056,0.048,6.096480369567871,0.16181272268295288,-8.892257690429688,5.753848552703857,0.5387517809867859,-0.6954774856567383,-0.04564885422587395,-0.15208669006824493,-0.051273927092552185,0.09042692184448242,0.13128824532032013,0.2886001467704773,770.0,794.0,755.0,767.0
1746577302204056,0.048,6.385317325592041,0.17512676119804382,-8.87530517578125,5.800059795379639,0.4418995976448059,-0.6694798469543457,-0.04331439733505249,-0.14537829160690308,-0.03823617473244667,0.10999628901481628,0.12725302577018738,0.2924063205718994,762.0,786.0,762.0,778.0
1746577302252056,0.048,6.672564506530762,0.18529994785785675,-8.859484672546387,5.838935852050781,0.3466821312904358,-0.6448701620101929,-0.04031682759523392,-0.13896600902080536,-0.02579284831881523,0.11414016038179398,0.11736791580915451,0.2901298403739929,757.0,781.0,766.0,782.0
1746577302308056,0.056,7.008126735687256,0.19576533138751984,-8.842989921569824,5.877385139465332,0.23952578008174896,-0.619785726070404,-0.036575719714164734,-0.13234001398086548,-0.01158150751143694,0.11101357638835907,0.0984821543097496,0.2810027599334717,752.0,774.0,772.0,789.0
1746577302356056,0.048,7.297616004943848,0.19701027870178223,-8.82900619506836,5.904617786407471,0.15000298619270325,-0.6019513607025146,-0.03354627639055252,-0.1275450736284256,-0.0008737124735489488,0.09952083975076675,0.08152284473180771,0.2682884633541107,747.0,771.0,776.0,792.0
1746577302404056,0.048,7.587077617645264,0.19759126007556915,-8.816427230834961,5.927595138549805,0.06792964041233063,-0.5869970321655273,-0.030699340626597404,-0.1234724149107933,0.009129208512604237,0.09552786499261856,0.06827352941036224,0.2521268427371979,744.0,767.0,779.0,795.0
1746577302452056,0.048,7.876059055328369,0.19745424389839172,-8.805276870727539,5.946560859680176,-0.008179289288818836,-0.5752384066581726,-0.027666820213198662,-0.12009173631668091,0.01848871074616909,0.09544224292039871,0.05557060241699219,0.23384344577789307,743.0,764.0,780.0,797.0
1746577302500056,0.048,8.164229393005371,0.19649238884449005,-8.795557022094727,5.961997032165527,-0.07705526053905487,-0.5658751726150513,-0.024601010605692863,-0.11724775284528732,0.026906002312898636,0.08900585770606995,0.046324390918016434,0.21340897679328918,740.0,762.0,781.0,799.0
1746577302548056,0.048,8.452555656433105,0.1950649917125702,-8.786725044250488,5.97518253326416,-0.13917303085327148,-0.5584689974784851,-0.02168802171945572,-0.11488813161849976,0.0347154438495636,0.08064323663711548,0.03699744492769241,0.19209985435009003,740.0,760.0,782.0,800.0
1746577302596056,0.048,8.742871284484863,0.19025494158267975,-8.77694320678711,5.986637592315674,-0.1958044171333313,-0.5523182153701782,-0.01908467523753643,-0.11293105781078339,0.04156583920121193,0.06910569965839386,0.03188242018222809,0.16959689557552338,739.0,760.0,782.0,799.0
1746577302644056,0.048,9.033916473388672,0.18403300642967224,-8.76730728149414,5.9968132972717285,-0.24481676518917084,-0.5466777086257935,-0.016909023746848106,-0.11121995002031326,0.047435250133275986,0.05900039151310921,0.028845427557826042,0.1473241150379181,738.0,759.0,782.0,800.0
1746577302692056,0.048,9.324397087097168,0.17787154018878937,-8.758525848388672,6.006016731262207,-0.2866303324699402,-0.541104793548584,-0.014922237023711205,-0.10964080691337585,0.05256840959191322,0.05200006440281868,0.027250954881310463,0.12494732439517975,739.0,759.0,782.0,799.0
1746577302748056,0.056,9.66118049621582,0.17005643248558044,-8.748871803283691,6.015498638153076,-0.32663780450820923,-0.5343826413154602,-0.012910573743283749,-0.10791242867708206,0.05754266679286957,0.04362266883254051,0.0285378135740757,0.09974334388971329,739.0,760.0,781.0,799.0
1746577302796056,0.048,9.950153350830078,0.16392409801483154,-8.741362571716309,6.02296257019043,-0.35372039675712585,-0.5290196537971497,-0.011422328650951385,-0.10647352784872055,0.061009615659713745,0.03639235347509384,0.026678167283535004,0.07862302660942078,740.0,760.0,780.0,799.0
1746577302844056,0.048,10.24129867553711,0.15582934021949768,-8.73315143585205,6.03045129776001,-0.37557196617126465,-0.5244388580322266,-0.010273301042616367,-0.10515113174915314,0.06363549083471298,0.026325128972530365,0.025306155905127525,0.05903123319149017,741.0,762.0,779.0,797.0
1746577302892056,0.048,10.533337593078613,0.14736288785934448,-8.725091934204102,6.037685394287109,-0.39152291417121887,-0.5203521847724915,-0.00943815615028143,-0.103914275765419,0.06541416794061661,0.019605498760938644,0.024978626519441605,0.040103036910295486,741.0,763.0,779.0,796.0
1746577302948056,0.056,10.874073028564453,0.13722442090511322,-8.716764450073242,6.045405387878418,-0.4038812518119812,-0.5157021284103394,-0.008573409169912338,-0.10249458253383636,0.06659331917762756,0.01811259798705578,0.025222722440958023,0.020160257816314697,743.0,764.0,776.0,794.0
1746577302996056,0.048,11.166597366333008,0.12282001972198486,-8.710927963256836,6.0512495040893555,-0.41052332520484924,-0.511308491230011,-0.007865865714848042,-0.10121317207813263,0.06642153859138489,0.016787590458989143,0.02466243878006935,0.004494234919548035,744.0,766.0,775.0,792.0
1746577303044056,0.048,11.459000587463379,0.10992764681577682,-8.705551147460938,6.056921005249023,-0.41173797845840454,-0.5072636008262634,-0.006929290480911732,-0.10004261136054993,0.06564487516880035,0.02378062903881073,0.021602284163236618,-0.009421133436262608,746.0,768.0,772.0,790.0
1746577303092056,0.048,11.751774787902832,0.09601648151874542,-8.69970989227295,6.062198638916016,-0.4087441563606262,-0.5034112930297852,-0.00562693178653717,-0.09900247305631638,0.06425846368074417,0.02887851558625698,0.019582223147153854,-0.02167215570807457,748.0,769.0,771.0,788.0
1746577303148056,0.056,12.093416213989258,0.08039932698011398,-8.693031311035156,6.067918300628662,-0.3998500108718872,-0.49953216314315796,-0.0038656729739159346,-0.0979122444987297,0.06200171262025833,0.030235758051276207,0.016808651387691498,-0.0331830196082592,750.0,771.0,768.0,786.0
1746577303196056,0.048,12.386337280273438,0.06774405390024185,-8.6873779296875,6.07241153717041,-0.38879477977752686,-0.49680525064468384,-0.0023291786201298237,-0.09710808843374252,0.05971720069646835,0.02773873321712017,0.014940652064979076,-0.041273850947618484,752.0,773.0,766.0,785.0
1746577303244056,0.048,12.680161476135254,0.05230218917131424,-8.68016242980957,6.076379299163818,-0.37619349360466003,-0.4941074252128601,-0.000999982818029821,-0.09636480361223221,0.05701364204287529,0.02227741852402687,0.012114781886339188,-0.04737640172243118,754.0,775.0,765.0,783.0
1746577303292056,0.048,12.973688125610352,0.038655102252960205,-8.673662185668945,6.080090045928955,-0.36068058013916016,-0.49245336651802063,0.00015340793470386416,-0.09575321525335312,0.054146043956279755,0.019148124381899834,0.009841643273830414,-0.05197220668196678,755.0,776.0,763.0,781.0
1746577303348056,0.056,13.316335678100586,0.021044112741947174,-8.663382530212402,6.084564685821533,-0.3424363136291504,-0.49014991521835327,0.0012889262288808823,-0.09510598331689835,0.05060270428657532,0.014429127797484398,0.00946762878447771,-0.055357880890369415,757.0,778.0,762.0,779.0
1746577303396056,0.048,13.609968185424805,0.006615948397666216,-8.654499053955078,6.088244438171387,-0.32542335987091064,-0.4884084463119507,0.0020356697496026754,-0.09458083659410477,0.04748249799013138,0.011896475218236446,0.008732029236853123,-0.056873880326747894,758.0,779.0,761.0,778.0
1746577303444056,0.048,13.903740882873535,-0.00710029061883688,-8.646061897277832,6.091672897338867,-0.3078272044658661,-0.48675310611724854,0.002763995435088873,-0.09402153640985489,0.04440590739250183,0.012207729741930962,0.010282817296683788,-0.05705191195011139,760.0,781.0,759.0,778.0
1746577303492056,0.048,14.198806762695312,-0.02383502572774887,-8.636096954345703,6.09549617767334,-0.2926139235496521,-0.4842432737350464,0.0033713357988744974,-0.0933898314833641,0.04130682721734047,0.009233572520315647,0.010579628869891167,-0.05654192715883255,760.0,782.0,759.0,776.0
1746577303548056,0.056,14.542672157287598,-0.041029367595911026,-8.625893592834473,6.099316120147705,-0.27376610040664673,-0.48169416189193726,0.004062231630086899,-0.09264364838600159,0.037855733186006546,0.012392986565828323,0.010683706030249596,-0.05477116256952286,762.0,783.0,758.0,776.0
1746577303596056,0.048,14.836807250976562,-0.05609825998544693,-8.617624282836914,6.101309299468994,-0.2590336203575134,-0.47991684079170227,0.004800976254045963,-0.09201478213071823,0.0350693054497242,0.013428312726318836,0.010278315283358097,-0.051976677030324936,762.0,784.0,757.0,775.0
1746577303644056,0.048,15.130565643310547,-0.07052092254161835,-8.610048294067383,6.102611541748047,-0.24473142623901367,-0.477970689535141,0.005508806090801954,-0.09134875237941742,0.03246678039431572,0.013344175182282925,0.009788811206817627,-0.04883740842342377,762.0,784.0,757.0,775.0
1746577303692056,0.048,15.42467212677002,-0.08375783264636993,-8.602849006652832,6.103903293609619,-0.23058171570301056,-0.47686657309532166,0.006226212717592716,-0.09085746109485626,0.030071966350078583,0.01285310834646225,0.005140955559909344,-0.045612163841724396,763.0,784.0,756.0,774.0
1746577303748056,0.056,15.77048110961914,-0.09964937716722488,-8.592877388000488,6.107147216796875,-0.21587051451206207,-0.4769059717655182,0.006782641168683767,-0.09056100249290466,0.02753170020878315,0.007771733682602644,0.002303243149071932,-0.041366346180438995,764.0,784.0,757.0,774.0
1746577303796056,0.048,16.066438674926758,-0.11159085482358932,-8.585424423217773,6.109384059906006,-0.2032100409269333,-0.4771692752838135,0.00714649073779583,-0.09028580039739609,0.025591369718313217,0.006428855005651712,0.005822830367833376,-0.03745707497000694,764.0,785.0,756.0,774.0
1746577303844056,0.048,16.360971450805664,-0.12193635106086731,-8.576825141906738,6.110395431518555,-0.19057221710681915,-0.47660401463508606,0.007384187541902065,-0.0898924171924591,0.023879174143075943,0.0018417136743664742,0.0073729101568460464,-0.0334097221493721,763.0,785.0,756.0,774.0
1746577303892056,0.048,16.65479278564453,-0.13090603053569794,-8.568355560302734,6.11063814163208,-0.17839716374874115,-0.47574350237846375,0.00737152760848403,-0.08949223905801773,0.02240096963942051,-0.003416124265640974,0.006157819181680679,-0.029194753617048264,763.0,785.0,756.0,774.0
1746577303948056,0.056,16.997346878051758,-0.1405983418226242,-8.558804512023926,6.110513210296631,-0.16522487998008728,-0.47559279203414917,0.007123434916138649,-0.08917652070522308,0.020928887650370598,-0.0076716141775250435,0.004858642816543579,-0.024502255022525787,763.0,784.0,757.0,775.0
1746577303996056,0.048,17.29054832458496,-0.15120773017406464,-8.547164916992188,6.110385417938232,-0.15660017728805542,-0.475510835647583,0.006646944209933281,-0.08896448463201523,0.01986410841345787,-0.012396254576742649,0.0022511789575219154,-0.020924344658851624,763.0,785.0,757.0,774.0
1746577304044056,0.048,17.583696365356445,-0.16036228835582733,-8.537079811096191,6.1100592613220215,-0.14836439490318298,-0.47621777653694153,0.006071365904062986,-0.08881255239248276,0.01896408572793007,-0.012523218058049679,0.0018619969487190247,-0.01740710437297821,763.0,785.0,758.0,775.0
1746577304092056,0.048,17.879226684570312,-0.16940240561962128,-8.528613090515137,6.110776901245117,-0.14195488393306732,-0.4778178334236145,0.00547973345965147,-0.0886840894818306,0.01823619194328785,-0.011376055888831615,0.0022477118764072657,-0.01461982075124979,762.0,784.0,758.0,775.0
1746577304148056,0.056,18.224929809570312,-0.17904239892959595,-8.520271301269531,6.112038612365723,-0.1356745809316635,-0.4794113039970398,0.004885850008577108,-0.08850651234388351,0.017584335058927536,-0.00836016982793808,0.004136039409786463,-0.011739728972315788,762.0,783.0,758.0,775.0
1746577304196056,0.048,18.52022361755371,-0.1861167997121811,-8.514019012451172,6.112617015838623,-0.13086795806884766,-0.4795895218849182,0.004486021585762501,-0.08819358795881271,0.01715541072189808,-0.008358599618077278,0.0076767560094594955,-0.009238931350409985,761.0,783.0,758.0,775.0
1746577304244056,0.048,18.81243133544922,-0.19249455630779266,-8.5081148147583,6.11170768737793,-0.1280888319015503,-0.47836700081825256,0.004003404174000025,-0.08769300580024719,0.016956211999058723,-0.009048731997609138,0.009829369373619556,-0.007187397684901953,760.0,783.0,758.0,775.0
1746577304292056,0.048,19.10474395751953,-0.19799600541591644,-8.502982139587402,6.110483646392822,-0.1254301518201828,-0.477515310049057,0.0036272841971367598,-0.08725668489933014,0.016833463683724403,-0.004796805325895548,0.005269923247396946,-0.0056457738392055035,760.0,783.0,759.0,776.0
1746577304340056,0.048,19.397397994995117,-0.20432664453983307,-8.497309684753418,6.108868598937988,-0.12450593709945679,-0.4779764711856842,0.0033957883715629578,-0.08708266168832779,0.01682414300739765,-0.0026629860512912273,0.0007347732316702604,-0.004509304650127888,760.0,782.0,759.0,776.0
1746577304388056,0.048,19.690143585205078,-0.21057695150375366,-8.491830825805664,6.107151985168457,-0.12428326159715652,-0.4789373576641083,0.003196436446160078,-0.08701828867197037,0.01690959371626377,-0.0017066644504666328,-0.0014098524115979671,-0.0037456729914993048,759.0,782.0,759.0,776.0
1746577304436056,0.048,19.982833862304688,-0.2159697711467743,-8.487069129943848,6.105442523956299,-0.12348602712154388,-0.4806455373764038,0.00313855754211545,-0.0870782732963562,0.016997303813695908,0.0017305166693404317,-0.003945468459278345,-0.0030177924782037735,759.0,781.0,759.0,777.0
1746577304484056,0.048,20.278202056884766,-0.2212008535861969,-8.479704856872559,6.105673313140869,-0.12277547270059586,-0.4825455844402313,0.003144310787320137,-0.08725234866142273,0.01709303818643093,0.0008965714368969202,-0.005433439277112484,-0.002951683709397912,759.0,780.0,760.0,777.0
1746577304532056,0.048,20.573257446289062,-0.22565938532352448,-8.47334098815918,6.105844974517822,-0.12123193591833115,-0.4843621551990509,0.0031186032574623823,-0.08736707270145416,0.017161909490823746,0.00016566156409680843,-0.0004221645067445934,-0.0028569926507771015,759.0,781.0,760.0,777.0
1746577304588056,0.056,20.917518615722656,-0.23110006749629974,-8.465923309326172,6.106626033782959,-0.11903221905231476,-0.484712153673172,0.002938165096566081,-0.08718646317720413,0.01719086244702339,-0.003713734680786729,0.005247611552476883,-0.00292756175622344,758.0,780.0,760.0,777.0
1746577304636056,0.048,21.212787628173828,-0.23616857826709747,-8.459396362304688,6.107920169830322,-0.11724996566772461,-0.48380500078201294,0.0026123791467398405,-0.08684634417295456,0.017193999141454697,-0.005920483265072107,0.008647066541016102,-0.0026652528904378414,758.0,781.0,760.0,777.0
1746577304684056,0.048,21.50787353515625,-0.24040396511554718,-8.453765869140625,6.108705997467041,-0.11480484157800674,-0.4822271466255188,0.0022148906718939543,-0.08637309074401855,0.017149634659290314,-0.006263452116400003,0.010027513839304447,-0.003465520916506648,758.0,780.0,760.0,777.0
1746577304732056,0.048,21.804649353027344,-0.24837975203990936,-8.44408130645752,6.110927104949951,-0.11542780697345734,-0.47949516773223877,0.0017787488177418709,-0.08586982637643814,0.01716005988419056,-0.006397041957825422,0.010807646438479424,-0.0036740892101079226,758.0,781.0,761.0,777.0
1746577304788056,0.056,22.150503158569336,-0.2562791109085083,-8.434489250183105,6.112620830535889,-0.115252286195755,-0.47666099667549133,0.0014879439258947968,-0.08522461354732513,0.017137721180915833,0.0013551777228713036,0.011964790523052216,-0.0044328598305583,758.0,780.0,761.0,778.0
1746577304836056,0.048,22.56907081604004,-0.2654874622821808,-8.423608779907227,6.112807750701904,-0.11452335119247437,-0.4730657935142517,0.0015638436889275908,-0.08443509042263031,0.01706921122968197,0.0044760992750525475,0.009696458466351032,-0.005542752332985401,758.0,781.0,760.0,778.0
1746577304884056,0.048,22.864591598510742,-0.27647778391838074,-8.412221908569336,6.113075256347656,-0.11718957126140594,-0.47054892778396606,0.0016405534697696567,-0.08403319120407104,0.01709897443652153,0.00594595680013299,0.006048225797712803,-0.0061547826044261456,758.0,781.0,761.0,778.0
1746577304932056,0.048,23.15990447998047,-0.28603243827819824,-8.402478218078613,6.112912178039551,-0.1181945651769638,-0.4693131446838379,0.0019033984281122684,-0.08378390222787857,0.017038999125361443,0.009537482634186745,0.0031769007910043,-0.0071862670592963696,758.0,781.0,761.0,778.0
1746577304988056,0.056,23.508420944213867,-0.3031577169895172,-8.383112907409668,6.1156721115112305,-0.12487318366765976,-0.4670950770378113,0.002311267890036106,-0.08353318274021149,0.017082611098885536,0.011397109366953373,0.005372323095798492,-0.007778136990964413,758.0,781.0,763.0,778.0
1746577305036056,0.048,23.806074142456055,-0.3144214153289795,-8.370431900024414,6.11690092086792,-0.12778429687023163,-0.4651137590408325,0.0029358721803873777,-0.08306357264518738,0.017106154933571815,0.020298290997743607,0.010630978271365166,-0.008695286698639393,759.0,781.0,762.0,779.0
1746577305084056,0.048,24.1015567779541,-0.32490819692611694,-8.362150192260742,6.116896629333496,-0.1286960244178772,-0.46315842866897583,0.0037926272489130497,-0.08247995376586914,0.017053009942173958,0.01986679807305336,0.010600076988339424,-0.00923965871334076,759.0,781.0,761.0,779.0
1746577305132056,0.048,24.396574020385742,-0.33406805992126465,-8.355603218078613,6.116251468658447,-0.1278015822172165,-0.4619712233543396,0.004485306330025196,-0.08200278878211975,0.016924571245908737,0.013524191454052925,0.007057735230773687,-0.00986569095402956,759.0,781.0,761.0,779.0
1746577305188056,0.056,24.741853713989258,-0.3443886637687683,-8.348657608032227,6.115647792816162,-0.1262340396642685,-0.46213045716285706,0.004896701779216528,-0.08171827346086502,0.0167158842086792,0.006550272461026907,0.001538898330181837,-0.010706378147006035,759.0,780.0,761.0,779.0
1746577305236056,0.048,25.038896560668945,-0.3533201515674591,-8.342997550964355,6.115556716918945,-0.12527605891227722,-0.46297982335090637,0.004930163733661175,-0.08164483308792114,0.016566457226872444,0.0015730996383354068,0.000629380636382848,-0.011251899413764477,758.0,781.0,761.0,778.0
1746577305284056,0.048,25.33551025390625,-0.3610331118106842,-8.33823299407959,6.115056991577148,-0.12277830392122269,-0.4638339579105377,0.0049069845117628574,-0.08159013092517853,0.016329582780599594,0.0008641814347356558,0.0010728162014856935,-0.011735978536307812,758.0,780.0,761.0,778.0
1746577305332056,0.048,25.628992080688477,-0.3748056888580322,-8.334650039672852,6.113640785217285,-0.12527164816856384,-0.46444201469421387,0.004785606171935797,-0.08144222944974899,0.016243593767285347,-8.123461157083511e-07,0.001872735796496272,-0.012561560608446598,757.0,781.0,761.0,778.0
1746577305388056,0.056,25.9708251953125,-0.39030370116233826,-8.331337928771973,6.111534118652344,-0.12806059420108795,-0.46547847986221313,0.004850331228226423,-0.0813290923833847,0.01617392711341381,0.008967486210167408,-0.0010390630923211575,-0.013122085481882095,757.0,781.0,761.0,777.0
1746577305436056,0.048,26.264772415161133,-0.40298426151275635,-8.329545021057129,6.109979152679443,-0.1296205073595047,-0.467035174369812,0.00531218433752656,-0.08135631680488586,0.01604883000254631,0.01249269675463438,-0.0022638814989477396,-0.013726947829127312,758.0,780.0,760.0,778.0
1746577305484056,0.048,26.560251235961914,-0.4163089990615845,-8.329055786132812,6.108935356140137,-0.13172312080860138,-0.46878987550735474,0.00576589023694396,-0.08140355348587036,0.015978176146745682,0.012721201404929161,-0.0032714013941586018,-0.014379901811480522,757.0,780.0,760.0,777.0
1746577305532056,0.048,26.855419158935547,-0.4280209541320801,-8.32873821258545,6.107685565948486,-0.13179230690002441,-0.47062990069389343,0.006308123003691435,-0.08149776607751846,0.015795761719346046,0.012754086405038834,-0.002971709705889225,-0.015002402476966381,758.0,779.0,760.0,777.0
1746577305588056,0.056,27.19880485534668,-0.4434438943862915,-8.328485488891602,6.106553554534912,-0.13316763937473297,-0.4717048108577728,0.00683065177872777,-0.08151022344827652,0.015611708164215088,0.011690113693475723,-0.0009821928106248379,-0.015257867984473705,757.0,779.0,760.0,776.0
1746577305636056,0.048,27.492904663085938,-0.45541372895240784,-8.328347206115723,6.105422019958496,-0.13277332484722137,-0.47206419706344604,0.007321390323340893,-0.08145851641893387,0.015388746745884418,0.01183992251753807,-0.0007005880470387638,-0.016130372881889343,757.0,779.0,759.0,777.0
1746577305684056,0.048,27.786724090576172,-0.4674181342124939,-8.328203201293945,6.104497909545898,-0.1317480206489563,-0.4723067581653595,0.007712462451308966,-0.08142128586769104,0.015092585235834122,0.008125372231006622,-0.0012764758430421352,-0.01640632562339306,758.0,779.0,760.0,776.0
1746577305732056,0.048,28.080249786376953,-0.48080357909202576,-8.327973365783691,6.10410213470459,-0.13185197114944458,-0.47233399748802185,0.007944651879370213,-0.0813414454460144,0.014872381463646889,0.007253531366586685,0.0016841880278661847,-0.016243180260062218,757.0,780.0,759.0,776.0
1746577305788056,0.056,28.422718048095703,-0.49433448910713196,-8.327799797058105,6.103221416473389,-0.12961304187774658,-0.47189241647720337,0.008273844607174397,-0.08118660748004913,0.014500518329441547,0.007010866887867451,0.0015680685173720121,-0.016425319015979767,757.0,780.0,759.0,776.0
1746577305836056,0.048,28.713560104370117,-0.5065096616744995,-8.325864791870117,6.1003499031066895,-0.12810440361499786,-0.4712340235710144,0.008501817472279072,-0.0810689702630043,0.014209375716745853,0.004938235506415367,-0.001128809293732047,-0.01621820218861103,757.0,780.0,759.0,777.0
1746577305884056,0.048,29.004606246948242,-0.5171204805374146,-8.324265480041504,6.0973381996154785,-0.125004842877388,-0.47206225991249084,0.008621074259281158,-0.08117416501045227,0.013846366666257381,0.001988853793591261,-0.004701199941337109,-0.01627936400473118,757.0,780.0,759.0,777.0
1746577305932056,0.048,29.29611587524414,-0.5265915989875793,-8.322800636291504,6.094864368438721,-0.12079282104969025,-0.47392669320106506,0.00855934526771307,-0.08142424374818802,0.013417231850326061,-0.003143386449664831,-0.007196449209004641,-0.016439352184534073,758.0,780.0,759.0,776.0
1746577305988056,0.056,29.63702964782715,-0.5366458892822266,-8.321081161499023,6.092989444732666,-0.11561967432498932,-0.4760828912258148,0.008234032429754734,-0.08168432116508484,0.01291884295642376,-0.006029251962900162,-0.004102157894521952,-0.015994269400835037,757.0,781.0,759.0,776.0
1746577306036056,0.048,29.92926788330078,-0.5439475178718567,-8.319879531860352,6.091362953186035,-0.11017326265573502,-0.477857768535614,0.007933542132377625,-0.0818636417388916,0.01242828369140625,-0.006986497901380062,-0.004550517071038485,-0.01586080528795719,758.0,780.0,759.0,776.0
1746577306084056,0.048,30.222320556640625,-0.5495630502700806,-8.318099021911621,6.090810775756836,-0.10390671342611313,-0.47939079999923706,0.007540477905422449,-0.08201348781585693,0.01188905443996191,-0.008268515579402447,-0.0022577710915356874,-0.015402883291244507,758.0,780.0,759.0,775.0
1746577306132056,0.048,30.5155029296875,-0.5541584491729736,-8.316479682922363,6.090340614318848,-0.09704514592885971,-0.4799254834651947,0.007149882148951292,-0.0820140391588211,0.01131360698491335,-0.007720539346337318,0.0013815888669341803,-0.015216529369354248,758.0,780.0,759.0,775.0
1746577306188056,0.056,30.858440399169922,-0.5598894953727722,-8.311362266540527,6.090097427368164,-0.08952739834785461,-0.47916263341903687,0.006741251330822706,-0.08188613504171371,0.010642762295901775,-0.007594699040055275,0.0021235814783722162,-0.01441187784075737,758.0,781.0,759.0,775.0
1746577306236056,0.048,31.153240203857422,-0.5653632879257202,-8.303908348083496,6.090080738067627,-0.08394741266965866,-0.47787585854530334,0.006414373405277729,-0.08175942301750183,0.010121525265276432,-0.006427571643143892,0.0038938052020967007,-0.013743123039603233,759.0,781.0,759.0,775.0
1746577306284056,0.048,31.447769165039062,-0.5698816180229187,-8.297612190246582,6.0897135734558105,-0.07802345603704453,-0.4765591323375702,0.0060567352920770645,-0.08153415471315384,0.009602835401892662,-0.008529240265488625,0.0041049146093428135,-0.013252956792712212,759.0,782.0,759.0,775.0
1746577306332056,0.048,31.745702743530273,-0.575471043586731,-8.289779663085938,6.091027736663818,-0.07269268482923508,-0.4757774770259857,0.00560354208573699,-0.08137127757072449,0.009098121896386147,-0.008991893380880356,0.004543690476566553,-0.012350999750196934,759.0,781.0,760.0,775.0
1746577306388056,0.056,32.093265533447266,-0.5811367034912109,-8.281655311584473,6.092340469360352,-0.0664292424917221,-0.4741193354129791,0.005198539700359106,-0.08099768310785294,0.008525913581252098,-0.006379899103194475,0.0077304900623857975,-0.011655974201858044,759.0,781.0,759.0,775.0
1746577306436056,0.048,32.39179992675781,-0.5858468413352966,-8.276042938232422,6.093467712402344,-0.06172533333301544,-0.47254693508148193,0.0048878388479352,-0.08062448352575302,0.0080745629966259,-0.006228662095963955,0.0077905370853841305,-0.010886294767260551,759.0,782.0,759.0,776.0
1746577306484056,0.048,32.69209671020508,-0.5912719368934631,-8.271642684936523,6.09517765045166,-0.058619219809770584,-0.4709177315235138,0.004557299893349409,-0.08022675663232803,0.007739607710391283,-0.005103027913719416,0.010722309350967407,-0.010211230255663395,758.0,782.0,759.0,775.0
1746577306532056,0.048,32.99143981933594,-0.5957410931587219,-8.267980575561523,6.096216678619385,-0.055335305631160736,-0.46842560172080994,0.004385523963719606,-0.07969536632299423,0.0074299173429608345,-0.0018303716788068414,0.011379602365195751,-0.009437883272767067,759.0,782.0,759.0,776.0
1746577306588056,0.056,33.34223556518555,-0.5988955497741699,-8.262574195861816,6.097801685333252,-0.05123041197657585,-0.4654196798801422,0.004250059369951487,-0.0791369304060936,0.007105646654963493,-0.0018034606473520398,0.01074045617133379,-0.008452734909951687,759.0,781.0,759.0,776.0
1746577306636056,0.048,33.64216995239258,-0.6007981896400452,-8.258482933044434,6.098402500152588,-0.047468140721321106,-0.4630833864212036,0.004057036247104406,-0.07869385182857513,0.0068437461741268635,-0.004721892066299915,0.008763305842876434,-0.007876114919781685,759.0,781.0,759.0,775.0
1746577306684056,0.048,33.94248580932617,-0.6034704446792603,-8.252768516540527,6.09906530380249,-0.04482527822256088,-0.4608752131462097,0.0037543633952736855,-0.07833389192819595,0.006626273039728403,-0.005903872195631266,0.0062051936984062195,-0.0072115748189389706,759.0,781.0,759.0,775.0
1746577306732056,0.048,34.24431228637695,-0.6080312728881836,-8.243709564208984,6.100411891937256,-0.04517589509487152,-0.45846372842788696,0.0033867049496620893,-0.07803799211978912,0.006617428734898567,-0.003573531750589609,0.00741526810452342,-0.006652021314948797,758.0,782.0,760.0,776.0
1746577306788056,0.056,34.59498596191406,-0.6123840808868408,-8.234944343566895,6.101036548614502,-0.045038338750600815,-0.45584672689437866,0.003254733979701996,-0.07760601490736008,0.006606393959373236,0.0008188866777345538,0.008271155878901482,-0.0062719471752643585,758.0,782.0,760.0,776.0
1746577306836056,0.048,34.90074920654297,-0.6179794073104858,-8.232810974121094,6.103076457977295,-0.04549533128738403,-0.45471853017807007,0.0032967734150588512,-0.07724297791719437,0.006600593216717243,0.0036858459934592247,0.0086249690502882,-0.005697420332580805,759.0,781.0,760.0,776.0
1746577306884056,0.048,35.20481872558594,-0.6226556301116943,-8.23108959197998,6.104221820831299,-0.04516170918941498,-0.4529540538787842,0.0033870881889015436,-0.07678483426570892,0.006581631489098072,0.004447744227945805,0.010646751150488853,-0.005430626682937145,758.0,781.0,760.0,776.0
1746577306932056,0.048,35.50906753540039,-0.6265833377838135,-8.229616165161133,6.105318546295166,-0.04437676817178726,-0.45074114203453064,0.003562907688319683,-0.07630232721567154,0.0065223779529333115,0.00455189635977149,0.010325266979634762,-0.005532519891858101,758.0,781.0,759.0,777.0
1746577306988056,0.056,35.8657112121582,-0.6304382085800171,-8.228045463562012,6.1071295738220215,-0.04320763424038887,-0.4490334987640381,0.0036588520742952824,-0.0758790448307991,0.006459041498601437,0.003050275146961212,0.008419268764555454,-0.005625821650028229,759.0,780.0,760.0,776.0
1746577307036056,0.048,36.169578552246094,-0.633023738861084,-8.227008819580078,6.1076226234436035,-0.041337691247463226,-0.447167307138443,0.003707185620442033,-0.07545686513185501,0.0063607883639633656,0.0010381302563473582,0.009700258262455463,-0.0052629620768129826,758.0,781.0,759.0,776.0
1746577307084056,0.048,36.474853515625,-0.6380736231803894,-8.226075172424316,6.108155250549316,-0.04085688292980194,-0.4455581307411194,0.003629019483923912,-0.07509779930114746,0.006310387514531612,-0.0012319372035562992,0.007262262981384993,-0.005074510350823402,758.0,781.0,760.0,776.0
1746577307132056,0.048,36.778987884521484,-0.6428115963935852,-8.225364685058594,6.108025550842285,-0.040261607617139816,-0.4443207085132599,0.003495036857202649,-0.0747721716761589,0.0062691266648471355,-0.0010030383709818125,0.007448382209986448,-0.005312689114362001,757.0,781.0,759.0,776.0
1746577307188056,0.056,37.1315803527832,-0.6486761569976807,-8.223104476928711,6.107173919677734,-0.04074013605713844,-0.44293785095214844,0.003342514391988516,-0.07448418438434601,0.006269953679293394,-0.0018356917425990105,0.004964493680745363,-0.005431029014289379,757.0,781.0,759.0,776.0
1746577307236056,0.048,37.43210220336914,-0.6543459892272949,-8.219783782958984,6.105893135070801,-0.043003425002098083,-0.4421333074569702,0.0032376162707805634,-0.07433513551950455,0.006422692444175482,0.0017960411496460438,0.001751340227201581,-0.00530310720205307,757.0,781.0,760.0,776.0
1746577307284056,0.048,37.731536865234375,-0.6591809391975403,-8.217094421386719,6.104055881500244,-0.04434036836028099,-0.44230687618255615,0.003360379720106721,-0.07434448599815369,0.006532175466418266,0.0063712396658957005,-0.0011923079146072268,-0.00559721514582634,758.0,780.0,760.0,776.0
1746577307332056,0.048,38.02989196777344,-0.6654548048973083,-8.215378761291504,6.101827621459961,-0.04742902144789696,-0.4426170587539673,0.003572210669517517,-0.07437091320753098,0.006728508975356817,0.0074574267491698265,-0.001121282228268683,-0.00581291364505887,757.0,781.0,760.0,776.0
1746577307388056,0.056,38.37685775756836,-0.6721485257148743,-8.213945388793945,6.098723411560059,-0.050254255533218384,-0.4435470998287201,0.003992442972958088,-0.07450125366449356,0.006955087650567293,0.010032761842012405,-0.003481136402115226,-0.006383875384926796,757.0,780.0,760.0,776.0
1746577307436056,0.048,38.67376708984375,-0.677937924861908,-8.213212966918945,6.096176624298096,-0.05190529674291611,-0.44514894485473633,0.004359807353466749,-0.07471675425767899,0.007073759566992521,0.008389826864004135,-0.005398670677095652,-0.007136527914553881,757.0,780.0,760.0,777.0
1746577307484056,0.048,38.97063064575195,-0.6846944689750671,-8.213080406188965,6.094098091125488,-0.0539284348487854,-0.44756656885147095,0.0046137976460158825,-0.07500910758972168,0.007220113184303045,0.0057998597621917725,-0.005809315945953131,-0.007296516560018063,757.0,780.0,760.0,776.0
1746577307532056,0.048,39.266822814941406,-0.6904770135879517,-8.213116645812988,6.091896057128906,-0.05447029694914818,-0.44958528876304626,0.004817074164748192,-0.07527359575033188,0.007266247645020485,0.005465103778988123,-0.005391629412770271,-0.007915874943137169,757.0,780.0,760.0,776.0
1746577307588056,0.056,39.61483383178711,-0.6979008316993713,-8.211095809936523,6.090290546417236,-0.054869018495082855,-0.45102837681770325,0.005021783523261547,-0.07554738223552704,0.007257279008626938,0.0034933937713503838,-0.0033434894867241383,-0.008144889958202839,757.0,780.0,760.0,776.0
1746577307636056,0.048,39.91254425048828,-0.7034708261489868,-8.209455490112305,6.088770866394043,-0.05405440181493759,-0.45180344581604004,0.005109298508614302,-0.075679711997509,0.0071738725528120995,0.0018785110441967845,-0.0016479913610965014,-0.0085220355540514,758.0,780.0,760.0,776.0
1746577307684056,0.048,40.209468841552734,-0.7086597681045532,-8.207353591918945,6.087136745452881,-0.0525030642747879,-0.4519706964492798,0.005106309894472361,-0.07571437954902649,0.007022310514003038,3.629177808761597e-05,-0.00012851005885750055,-0.008890547789633274,757.0,780.0,760.0,776.0
1746577307732056,0.048,40.50575256347656,-0.7139679789543152,-8.204142570495605,6.085454940795898,-0.051100969314575195,-0.4515555799007416,0.005054903216660023,-0.07571612298488617,0.006864901632070541,-0.0006517143920063972,0.00016976769256871194,-0.009038622491061687,758.0,780.0,760.0,776.0
1746577307788056,0.056,40.850547790527344,-0.7190563678741455,-8.201119422912598,6.082983016967773,-0.04824289306998253,-0.45143160223960876,0.004959368146955967,-0.07569718360900879,0.006597970146685839,-0.0006105515640228987,-0.0005627669161185622,-0.009192289784550667,758.0,780.0,760.0,776.0
1746577307836056,0.048,41.14472961425781,-0.7238290309906006,-8.196096420288086,6.080770969390869,-0.04550079628825188,-0.45210617780685425,0.004845248535275459,-0.07577850669622421,0.006319346837699413,-0.0031888880766928196,-0.002550028031691909,-0.009087024256587029,758.0,781.0,760.0,776.0
1746577307884056,0.048,41.43848419189453,-0.7277218103408813,-8.191986083984375,6.078347682952881,-0.04212987795472145,-0.4534643292427063,0.00464871060103178,-0.07593473792076111,0.00600676191970706,-0.00479480903595686,-0.004052815027534962,-0.008797655813395977,758.0,781.0,760.0,776.0
1746577307932056,0.048,41.73194122314453,-0.7316113710403442,-8.187963485717773,6.075939178466797,-0.03874621540307999,-0.45530349016189575,0.0043771532364189625,-0.0761689618229866,0.005678592249751091,-0.006559880916029215,-0.005807121284306049,-0.008841936476528645,758.0,781.0,760.0,775.0
1746577307988056,0.056,42.07406997680664,-0.7368665933609009,-8.182760238647461,6.073359489440918,-0.03575403243303299,-0.4573723077774048,0.0040180254727602005,-0.07647865265607834,0.005349535960704088,-0.0045982846058905125,-0.005008782725781202,-0.008534248918294907,758.0,781.0,759.0,775.0
1746577308036056,0.048,42.36698532104492,-0.7404353618621826,-8.179178237915039,6.071225166320801,-0.03289850801229477,-0.4588029086589813,0.0038079856894910336,-0.07671145349740982,0.005058570299297571,-0.004686182364821434,-0.004803157411515713,-0.008108540438115597,758.0,781.0,760.0,775.0
1746577308084056,0.048,42.66090393066406,-0.7443557381629944,-8.171825408935547,6.069663047790527,-0.03025531768798828,-0.4591890871524811,0.0036129537038505077,-0.07692161202430725,0.004776324145495892,-0.0045367274433374405,-0.004229995422065258,-0.007953501306474209,758.0,781.0,760.0,775.0
1746577308132056,0.048,42.95466995239258,-0.747684121131897,-8.164896965026855,6.0681471824646,-0.027450289577245712,-0.459648996591568,0.0034360114950686693,-0.07709955424070358,0.004483724478632212,-0.0033817284274846315,-0.002713641384616494,-0.007951625622808933,758.0,781.0,760.0,776.0
1746577308180056,0.048,43.247440338134766,-0.750705897808075,-8.15823745727539,6.066381454467773,-0.024847859516739845,-0.4601854979991913,0.0032711110543459654,-0.07725222408771515,0.004197967238724232,-0.003317521885037422,-0.0032106414437294006,-0.007388193625956774,758.0,782.0,760.0,775.0
1746577308228056,0.048,43.538818359375,-0.7538561820983887,-8.151015281677246,6.0643086433410645,-0.023142490535974503,-0.46106573939323425,0.0031249059829860926,-0.07742297649383545,0.0039954534731805325,-0.0033302721567451954,-0.004171919543296099,-0.0069128223694860935,759.0,782.0,760.0,775.0
1746577308276056,0.048,43.8300666809082,-0.7563103437423706,-8.145015716552734,6.062308311462402,-0.021147018298506737,-0.46246278285980225,0.0029895517509430647,-0.07760927826166153,0.00380133674480021,-0.002864804118871689,-0.00427106861025095,-0.006552708335220814,758.0,782.0,760.0,776.0
1746577308324056,0.048,44.12361526489258,-0.759699821472168,-8.139954566955566,6.06153678894043,-0.020047862082719803,-0.46439361572265625,0.0028497593011707067,-0.07781947404146194,0.0036467097233980894,-0.0022563538514077663,-0.003171338699758053,-0.0059268116019666195,758.0,781.0,760.0,775.0
1746577308372056,0.048,44.417884826660156,-0.7631053924560547,-8.135769844055176,6.061175346374512,-0.01924901455640793,-0.46519243717193604,0.0027614436112344265,-0.07787904888391495,0.003532683476805687,-0.0004739832947961986,0.0008784231613390148,-0.005364661104977131,758.0,781.0,760.0,775.0
1746577308428056,0.056,44.76069259643555,-0.7658743262290955,-8.131765365600586,6.060482501983643,-0.017733661457896233,-0.46470656991004944,0.002775573404505849,-0.07772384583950043,0.0033909666817635298,0.0011835978366434574,0.0035986509174108505,-0.005511068738996983,758.0,782.0,760.0,776.0
1746577308476056,0.048,45.05450439453125,-0.766065239906311,-8.128552436828613,6.060243129730225,-0.014668256975710392,-0.4647563695907593,0.0028674625791609287,-0.07762321829795837,0.0031764700543135405,0.0016731012146919966,0.003263582941144705,-0.005089625716209412,759.0,781.0,759.0,776.0
1746577308524056,0.048,45.34792709350586,-0.7659009099006653,-8.126022338867188,6.059584617614746,-0.011300863698124886,-0.4647504985332489,0.0028159862849861383,-0.07752346247434616,0.0029581852722913027,-0.0032818098552525043,0.0016135062323883176,-0.004626680165529251,758.0,781.0,759.0,775.0
1746577308572056,0.048,45.64101791381836,-0.7663223743438721,-8.124770164489746,6.058990478515625,-0.008549520745873451,-0.46513089537620544,0.002583180321380496,-0.07750827074050903,0.002765195444226265,-0.0059778206050395966,-6.486938946181908e-05,-0.003831814741715789,758.0,781.0,759.0,775.0
1746577308628056,0.056,45.982643127441406,-0.7668046951293945,-8.124149322509766,6.058160305023193,-0.005712747573852539,-0.4659522771835327,0.002234748797491193,-0.07750194519758224,0.002571200020611286,-0.006343862507492304,0.0014936592197045684,-0.0037462664768099785,758.0,781.0,759.0,775.0
1746577308676056,0.048,46.27492904663086,-0.7676036953926086,-8.124068260192871,6.0572428703308105,-0.003855399088934064,-0.4664975106716156,0.0018982519395649433,-0.07747941464185715,0.002424685750156641,-0.007514586206525564,0.00021880348504055291,-0.003195054130628705,758.0,781.0,759.0,774.0
1746577308724056,0.048,46.565799713134766,-0.7717038989067078,-8.12486457824707,6.055984973907471,-0.00440704170614481,-0.4668634533882141,0.001524055376648903,-0.07747430354356766,0.0024091117084026337,-0.005574424751102924,0.00018274776812177151,-0.0025837388820946217,757.0,781.0,759.0,774.0
1746577308772056,0.048,46.85664367675781,-0.7749952077865601,-8.125723838806152,6.054478645324707,-0.004916706122457981,-0.46714502573013306,0.0013791780220344663,-0.07749832421541214,0.002411688445135951,0.00021518231369554996,-0.0005389521247707307,-0.0026614293456077576,757.0,781.0,759.0,774.0
1746577308828056,0.056,47.19688034057617,-0.7787315249443054,-8.127172470092773,6.053225040435791,-0.0062189772725105286,-0.46792489290237427,0.0014518694952130318,-0.07758527249097824,0.0024617959279567003,0.0025307885371148586,-0.001527313725091517,-0.0025114561431109905,757.0,780.0,759.0,774.0
1746577308876056,0.048,47.48863983154297,-0.7815060615539551,-8.128514289855957,6.052218437194824,-0.007339725270867348,-0.46830427646636963,0.0015624925727024674,-0.07764062285423279,0.002539385110139847,0.0036782966926693916,-0.00011452670878497884,-0.001971083227545023,757.0,780.0,759.0,775.0
1746577308924056,0.048,47.78069305419922,-0.7834410667419434,-8.12871265411377,6.051370620727539,-0.0077295489609241486,-0.46841973066329956,0.0016638051019981503,-0.0776652842760086,0.002599400468170643,0.0027109826914966106,-0.00019402545876801014,-0.0020445387344807386,757.0,780.0,759.0,775.0
1746577308972056,0.048,48.074798583984375,-0.7836471796035767,-8.123899459838867,6.052041053771973,-0.006655368022620678,-0.46799325942993164,0.0017458766233175993,-0.07770934700965881,0.00257644965313375,0.003113124519586563,0.0011973334476351738,-0.002075741533190012,757.0,780.0,759.0,775.0
1746577309028056,0.056,48.417388916015625,-0.7835173606872559,-8.119396209716797,6.052458763122559,-0.0048519703559577465,-0.46676284074783325,0.0018003879813477397,-0.07756812870502472,0.002513896208256483,-0.0006901053711771965,0.005232951138168573,-0.002041550586000085,757.0,780.0,759.0,775.0
1746577309076056,0.048,48.711917877197266,-0.7834444046020508,-8.118456840515137,6.053100109100342,-0.0031459862366318703,-0.4655877947807312,0.0016914254520088434,-0.07736171036958694,0.002439545001834631,-0.002410716377198696,0.0056608133018016815,-0.002061006147414446,758.0,780.0,760.0,775.0
1746577309124056,0.048,49.00658416748047,-0.7832238078117371,-8.118779182434082,6.053603172302246,-0.0012971035903319716,-0.4641268849372864,0.0015118417795747519,-0.0770687535405159,0.002347515197470784,-0.004101667553186417,0.007339950650930405,-0.002345448825508356,757.0,780.0,759.0,775.0
1746577309172056,0.048,49.300899505615234,-0.7832191586494446,-8.118762969970703,6.053770542144775,0.00035554092028178275,-0.4625304639339447,0.0012465984327718616,-0.0767926424741745,0.0022407618816941977,-0.006095126736909151,0.005469673778861761,-0.0022156278137117624,757.0,780.0,760.0,775.0
1746577309228056,0.056,49.6446647644043,-0.7856032252311707,-8.116634368896484,6.05430269241333,0.00021406491578090936,-0.4610821306705475,0.0009140325128100812,-0.07655327767133713,0.0022020519245415926,-0.002995196031406522,0.0045598773285746574,-0.002058028941974044,757.0,780.0,760.0,775.0
1746577309276056,0.048,49.938812255859375,-0.787091851234436,-8.115285873413086,6.054375171661377,0.00023319416504818946,-0.46015018224716187,0.0008435991476289928,-0.0763607770204544,0.00215441407635808,0.00038721668533980846,0.005281662568449974,-0.0027785422280430794,757.0,781.0,759.0,775.0
1746577309324056,0.048,50.23219680786133,-0.788798451423645,-8.112083435058594,6.053716659545898,0.0007327466155402362,-0.4589339792728424,0.0008785657701082528,-0.07620975375175476,0.0020888312719762325,0.0016634194180369377,0.002743770834058523,-0.0024221751373261213,757.0,781.0,759.0,775.0
1746577309372056,0.048,50.525020599365234,-0.790294885635376,-8.108500480651855,6.0525407791137695,0.0015826895833015442,-0.4582960605621338,0.0009499643929302692,-0.07615110278129578,0.00200280686840415,0.0016152309253811836,-0.0002186389174312353,-0.0023838039487600327,758.0,780.0,759.0,775.0
1746577309428056,0.056,50.8657112121582,-0.7919242978096008,-8.103961944580078,6.050624847412109,0.002479346701875329,-0.4581896960735321,0.0009370934567414224,-0.07618390768766403,0.0019080869387835264,-1.6605481505393982e-05,-0.001411163480952382,-0.0020845802500844,758.0,780.0,759.0,775.0
1746577309476056,0.048,51.15517807006836,-0.7952748537063599,-8.095025062561035,6.047878742218018,0.0015045199543237686,-0.4569934904575348,0.0008939508115872741,-0.0762266293168068,0.0019373020622879267,0.00027658010367304087,-0.003030878957360983,-0.0018422362627461553,757.0,781.0,760.0,775.0
1746577309524056,0.048,51.44465637207031,-0.7979376316070557,-8.087584495544434,6.045288562774658,0.0006783796125091612,-0.45749741792678833,0.0009024504688568413,-0.07640518993139267,0.0019594032783061266,2.811313606798649e-05,-0.006063131615519524,-0.0017329246038571,758.0,781.0,760.0,775.0
1746577309572056,0.048,51.73473358154297,-0.7982838153839111,-8.081939697265625,6.042829513549805,0.0008296768646687269,-0.4593910574913025,0.000878095394000411,-0.07671282440423965,0.0019593751057982445,-8.77142883837223e-06,-0.007506120018661022,-0.0017979021649807692,758.0,781.0,760.0,776.0
1746577309620056,0.048,52.02494812011719,-0.797531247138977,-8.077526092529297,6.040380001068115,0.001586937578395009,-0.4618232250213623,0.0008361832005903125,-0.07705473154783249,0.001933604129590094,-0.0012583507923409343,-0.007858172059059143,-0.0017320129554718733,758.0,781.0,760.0,775.0
1746577309668056,0.048,52.3149528503418,-0.7965993285179138,-8.073958396911621,6.038115978240967,0.002438761293888092,-0.4643033742904663,0.000765864213462919,-0.07737699896097183,0.0018984538037329912,-0.0017018442740663886,-0.0074461824260652065,-0.001533561502583325,758.0,781.0,760.0,775.0
1746577309716056,0.048,52.60848617553711,-0.791752278804779,-8.069491386413574,6.0378007888793945,0.005829745437949896,-0.46667370200157166,0.0007131783640943468,-0.0776849016547203,0.0017504862044006586,-0.0016508615808561444,-0.005175556056201458,-0.001841495162807405,758.0,780.0,760.0,775.0
1746577309772056,0.056,52.950279235839844,-0.7864695191383362,-8.065423011779785,6.03751802444458,0.009805074892938137,-0.4677421748638153,0.0005572938825935125,-0.0777905210852623,0.0015451700892299414,-0.00529018510133028,0.0011642560129985213,-0.0012892716331407428,758.0,781.0,759.0,775.0
1746577309828056,0.056,53.29679870605469,-0.7796456217765808,-8.058333396911621,6.039191722869873,0.014052429236471653,-0.4672009348869324,0.00018306788115296513,-0.07773517817258835,0.0013139689108356833,-0.008401858620345592,0.00310009578242898,-0.001113624544814229,758.0,780.0,760.0,775.0
1746577309876056,0.048,53.5944938659668,-0.7736387252807617,-8.052197456359863,6.040908336639404,0.01750391162931919,-0.46558794379234314,-0.0002453048946335912,-0.0775049701333046,0.0011070241453126073,-0.009489265270531178,0.0074801673181355,-0.0007286635809578001,758.0,781.0,760.0,775.0
1746577309924056,0.048,53.89167022705078,-0.7680490612983704,-8.047371864318848,6.042169094085693,0.020358463749289513,-0.4635300040245056,-0.0006618424667976797,-0.07712512463331223,0.0009283242980018258,-0.008369646035134792,0.00996822863817215,-0.0009992169216275215,758.0,781.0,759.0,775.0
1746577309972056,0.048,54.19014358520508,-0.762818455696106,-8.044293403625488,6.043475151062012,0.022795990109443665,-0.4614730179309845,-0.0010712352814152837,-0.076688252389431,0.0007691787905059755,-0.009230110794305801,0.010502418503165245,-0.0005249156965874135,757.0,781.0,759.0,775.0
1746577310028056,0.056,54.536956787109375,-0.7571541666984558,-8.041557312011719,6.044232368469238,0.024883462116122246,-0.4594191908836365,-0.0015306849963963032,-0.07625555247068405,0.0006259945221245289,-0.008284928277134895,0.006340644787997007,-0.0005023298435844481,757.0,781.0,760.0,775.0
1746577310076056,0.048,54.83017349243164,-0.751573920249939,-8.036954879760742,6.043220520019531,0.02681185118854046,-0.45777401328086853,-0.001797578064724803,-0.0760231539607048,0.0005175159894861281,-0.0047638900578022,0.0037585967220366,-0.00027188542298972607,757.0,781.0,759.0,775.0
1746577310124056,0.048,55.12150955200195,-0.7458925843238831,-8.031943321228027,6.041306018829346,0.028615226969122887,-0.4569738507270813,-0.002001493237912655,-0.07595085352659225,0.0004239270347170532,-0.004908554721623659,-0.0006387935718521476,-0.00010271469363942742,758.0,781.0,759.0,775.0
1746577310172056,0.048,55.41252899169922,-0.7410233020782471,-8.027832984924316,6.039174556732178,0.029742486774921417,-0.45766326785087585,-0.0022635182831436396,-0.0760766938328743,0.0003651366860140115,-0.006273825652897358,-0.004241378046572208,0.00036457180976867676,758.0,781.0,760.0,775.0
1746577310228056,0.056,55.75156784057617,-0.7379674315452576,-8.02365493774414,6.036997318267822,0.0293541569262743,-0.45966991782188416,-0.0025148566346615553,-0.07636373490095139,0.00036058356636203825,-0.003594515845179558,-0.005743755493313074,0.00023559709370601922,757.0,781.0,760.0,775.0
1746577310276056,0.048,56.041996002197266,-0.7353742718696594,-8.020913124084473,6.035096645355225,0.028822945430874825,-0.4618934690952301,-0.002591779688373208,-0.07664476335048676,0.0003757922095246613,0.00021354283671826124,-0.006389736197888851,0.0004493773740250617,758.0,781.0,760.0,775.0
